field_organization_name,field_address_1,field_city,field_state,Zip,field_phone,field_latitude,field_longitude,title,field_school_type,field_type
Placer Learning Center,5477 Eureka Rd Ste 2,Granite Bay,CA,95746,(916) 774-1260,38.7368,-121.198,Placer Learning Center,private,school
Precious Cargo Christian Academy,433 Sixth St,Norco,CA,92860,(951) 736-0312,33.9389,-117.531,Precious Cargo Christian Academy,private,school
Renaissance Village Academy,9988 Hibert St Ste 301,San Diego,CA,92131,(858) 564-9622,32.9141,-117.111,Renaissance Village Academy,private,school
Seaport Academy,452 5th Ave,Redwood City,CA,94063,(650) 367-6791,37.4736,-122.203,Seaport Academy,private,school
Tahoe Expedition Academy,8651 Speckled Ave,Kings Beach,CA,96143,(530) 546-5253,39.2436,-120.021,Tahoe Expedition Academy,private,school
The Rock Christian School,2345 S Waterman Ave,San Bernardino,CA,92408,(909) 825-8887,34.0594,-117.277,The Rock Christian School,private,school
Valley Christian Schools,10818 Artesia Blvd,Cerritos,CA,90703,(562) 860-0556,33.8695,-118.103,Valley Christian Schools,private,school
Weil Tennis Academy and College Preparatory School,428 Bryant Cir,Ojai,CA,93023,(805) 640-3413,34.4444,-119.239,Weil Tennis Academy and College Preparatory School,private,school
Denver Street School-East Campus,1585 Kingston St,Aurora,CO,80010,(720) 935-2154,39.7413,-104.859,Denver Street School-East Campus,private,school
Evangelical Christian Academy,4052 S Nonchalant Cir,Colorado Springs,CO,80917,(719) 597-3675,38.88,-104.752,Evangelical Christian Academy,private,school
Jefferson Hills - Lakewood,421 Zang Street,Lakewood,CO,80228,(303) 432-5772,39.7238,-105.146,Jefferson Hills - Lakewood,private,school
Chapel Haven School,1040 Whalley Ave,New Haven,CT,6515,(203) 397-1714,41.3284,-72.9646,Chapel Haven School,private,school
Futures School,1030 New Britain Ave Ste 102,West Hartford,CT,6110,(860) 347-5099,41.7301,-72.7243,Futures School,private,school
Lighthouse Vocational-Ed Center (site 3),58 Pennsylvania Ave,Niantic,CT,6357,(860) 445-7626,41.3255,-72.1931,Lighthouse Vocational-Ed Center (site 3),private,school
The Academy of Wheeler Clinic,20 Tuttle Pl Ste 4,Middletown,CT,6457,(860) 632-4100,41.5946,-72.6805,The Academy of Wheeler Clinic,private,school
Options Educational Services,606 Farmington Ave,Hartford,CT,6105,(860) 712-6362,41.7661,-72.7129,Options Educational Services,private,school
Towle Institute,199 Polly Drummond Hill Road,Newark,DE,19711,(302) 993-1408,39.7141,-75.7136,Towle Institute,private,school
Abundantcrescent City Christian Academy,2701 S Us Highway 17,Crescent City,FL,32112,(386) 698-1133,29.4045,-81.51,Abundantcrescent City Christian Academy,private,school
Ace Academy South,303 W. Palm Dr.,Florida City,FL,33034,(786) 650-2030,25.4476,-80.481,Ace Academy South,private,school
American High School,7777b Davie Road Ext Ste 201b,Hollywood,FL,33024,(866) 936-9654,26.0352,-80.2442,American High School,private,school
Austin Christian Academy,6901 N Main St,Jacksonville,FL,32208,(904) 647-5065,30.382,-81.6494,Austin Christian Academy,private,school
Bethel Christian Academy,312 N Duss Street,New Smyrna Beach,FL,32168,(386) 427-8889,29.0244,-80.933,Bethel Christian Academy,private,school
Brevard Academy,3453 W New Haven Ave Ste B,West Melbourne,FL,32904,(321) 345-4309,28.0783,-80.6808,Brevard Academy,private,school
Bright Learning - Cyber High School,7300 Aloma Ave,Winter Park,FL,32792,(407) 657-2130,28.6081,-81.2906,Bright Learning - Cyber High School,private,school
Cambridge Prep Academy,2658 SW Main Blvd,Lake City,FL,32025,(386) 243-8285,30.1524,-82.6442,Cambridge Prep Academy,private,school
Christ Children Academy,2900 NW 183rd St,Miami Gardens,FL,33056,(305) 474-3061,25.94,-80.2499,Christ Children Academy,private,school
Christian Life Academy,1244 W. Jefferson St,Brooksville,FL,34601,(352) 428-4397,28.5532,-82.4129,Christian Life Academy,private,school
Chrysalis School at Read America,1173 Spring Centre South Blvd Ste B,Altamonte Springs,FL,32714,(321) 422-4171,28.6863,-81.3928,Chrysalis School at Read America,private,school
Faith Christian Academy,13050 Highway 89,Jay,FL,32565,(850) 675-0227,30.9125,-87.167,Faith Christian Academy,private,school
Connecting Generations and Nations Academy,4635 N Us Hwy 1,Palm Shores,FL,32935,(321) 255-9831,28.1836,-80.6517,Connecting Generations and Nations Academy,private,school
Crossroads Christian School Arlington Campus,6429 Atlantic Blvd.,Jacksonville,FL,32211,(904) 254-6428,30.3131,-81.5934,Crossroads Christian School Arlington Campus,private,school
De Lasalle Academy of Fort Myers,6401 Techster Blvd,Fort Myers,FL,33966,(239) 245-8212,26.5502,-81.848,De Lasalle Academy of Fort Myers,private,school
Ebenezer Christian School,1013 N Redland Rd,Florida City,FL,33034,(305) 394-9494,25.4578,-80.4932,Ebenezer Christian School,private,school
Edgehop Christian Academy,3042 Suite a South Ridgewood Ave,Edgewater,FL,32141,(386) 585-0588,28.9469,-80.8843,Edgehop Christian Academy,private,school
Educative Center El Redentor',4751 S Golden Rd,Orlando,FL,32822,(407) 730-5939,28.4774,-81.2842,Educative Center El Redentor',private,school
Eunice Christian School,3636 Hemlock St,Jacksonville,FL,32218,(904) 351-6610,30.4597,-81.7086,Eunice Christian School,private,school
Faith Christian Academy,905 W Terrace Dr,Plant City,FL,33563,(813) 473-2090,28.0394,-82.1326,Faith Christian Academy,private,school
First Assembly Christian Academydaycare,201 N 11th Ave,Arcadia,FL,34266,(863) 494-0616,27.2129,-81.8472,First Assembly Christian Academydaycare,private,school
First Coast Academy,2725 College St,Jacksonville,FL,32205,(904) 381-1935,30.3144,-81.6966,First Coast Academy,private,school
Gap Christian Academy,183 S Lake Ave,Pahokee,FL,33476,(561) 924-0111,26.8224,-80.6658,Gap Christian Academy,private,school
Genesis Christian Academy,4526 N Access Rd,Englewood,FL,34224,(941) 276-2850,26.9334,-82.2594,Genesis Christian Academy,private,school
Grace and Glory Christian School,929 Main St,Chipley,FL,32428,(850) 638-3700,30.7763,-85.5378,Grace and Glory Christian School,private,school
Grace Community School of Cape Coral,871 Miramar St,Cape Coral,FL,33904,(239) 458-1644,26.5611,-81.9548,Grace Community School of Cape Coral,private,school
Growing Minds Center,106 Trade Cir W Ste a,Port St. Joe,FL,32456,(850) 229-2757,29.8333,-85.2916,Growing Minds Center,private,school
Huntington Learning Center- Tampa,13911 N Dale Mabry Hwy Ste 101,Tampa,FL,33618,(813) 908-1000,28.0742,-82.5059,Huntington Learning Center- Tampa,private,school
Inspirations Academy,757 SE 17th St,Fort Lauderdale,FL,33316,(954) 906-9612,26.1004,-80.1349,Inspirations Academy,private,school
Kingdom Christian Academy Precious Childr,724 S Magnolia Ave,Ocala,FL,34471,(352) 438-5464,29.1806,-82.1373,Kingdom Christian Academy Precious Childr,private,school
Kingdom Christian School,2563 Remington Blvd,Kissimmee,FL,34744,(407) 371-4075,28.2855,-81.3365,Kingdom Christian School,private,school
Kingdom Preparatory Academy,777-b N Highway 27,Clermont,FL,34711,(321) 442-4234,28.5725,-81.7463,Kingdom Preparatory Academy,private,school
La Amistad Learning Center,1650 N Park Ave,Maitland,FL,32751,(407) 647-3054,28.6131,-81.3642,La Amistad Learning Center,private,school
Lifeskills Outreach Learning and Supports,12443 Joda Ln E 1,Jacksonville,FL,32258,(904) 705-8438,30.1454,-81.5823,Lifeskills Outreach Learning and Supports,private,school
Marketplace Mission Learning Center,320 N Barfield Dr,Marco Island,FL,34145,(239) 682-4291,25.946,-81.7031,Marketplace Mission Learning Center,private,school
New Life Preparatory Academy,2111 NW 2nd St,Pompano Beach,FL,33069,(954) 440-8333,26.2336,-80.1516,New Life Preparatory Academy,private,school
Next Generation,1012 S Washington St,Perry,FL,32348,(850) 584-3334,30.1106,-83.5807,Next Generation,private,school
North Dade Christian School,1956 NW 183 St,Miami Gardens,FL,33056,(305) 769-0455,25.9409,-80.2344,North Dade Christian School,private,school
Ohana Institute,PO Box 611487,Rosemary Beach,FL,32461,(850) 231-1140,30.2796,-86.016,Ohana Institute,private,school
Revival Fire Christian Academy,525 S. Ronald Reagan Blvd. Ste. 113,Longwood,FL,32750,(321) 972-8878,28.6918,-81.3459,Revival Fire Christian Academy,private,school
Rhema Word Christian Academy,950 S Cypress Rd,Pompano Beach,FL,33060,(954) 781-8680,26.2171,-80.1226,Rhema Word Christian Academy,private,school
Score at the Top Coral Springs Llc,6250 Coral Ridge Dr Ste 190,Coral Springs,FL,33076,(954) 510-0600,26.3069,-80.2815,Score at the Top Coral Springs Llc,private,school
Southwest Georgia Institute of Education,107 North Mock Bldg. G,Albany,GA,31705,(229) 903-9747,31.5755,-84.0952,Southwest Georgia Institute of Education,private,school
Stepping Stones School,17633 Gunn Hwy Ste 115,Odessa,FL,33556,(813) 973-0619,28.1274,-82.5746,Stepping Stones School,private,school
Tdr Learning Academy,3057 Curry Ford Rd Ste 1,Orlando,FL,32806,(407) 694-8595,28.525,-81.345,Tdr Learning Academy,private,school
The Arc Jacksonville Academy 2 - Oct,"1 Unf Drive, Building 57, Room 2800",Jacksonville,FL,32224,(904) 620-3892,30.2693,-81.5087,The Arc Jacksonville Academy 2 - Oct,private,school
The Movement School,11000 110th Ave,Largo,FL,33778,(727) 709-6186,27.872,-82.7917,The Movement School,private,school
The Preparatory School at National Deaf,19650 Us Highway 441,Mount Dora,FL,32757,(352) 735-9500,28.8176,-81.6334,The Preparatory School at National Deaf,private,school
The Science and Math Institute,2669 Kimberly Forest Dr E,Jacksonville,FL,32246,(904) 573-0883,30.2999,-81.5144,The Science and Math Institute,private,school
The Word Center Christian Academy,2120 S. Ridgewood Ave #8-9,Edgewater,FL,32141,(386) 403-1233,28.9664,-80.8932,The Word Center Christian Academy,private,school
The Word in Season Christian School for Exc,407 N.e. Hatley St.,Jasper,FL,32052,(386) 792-2208,30.5176,-82.9425,The Word in Season Christian School for Exc,private,school
United Brethren in Christ Academy,560 Flomich St,Holly Hill,FL,32117,(386) 453-6626,29.2526,-81.0555,United Brethren in Christ Academy,private,school
Village View Christian Academy,8585 SE 147th Pl,Summerfield,FL,34491,(352) 693-5941,29.0095,-82.0107,Village View Christian Academy,private,school
Vision Christian Academy,18680 NE 75th St County Road 335,Williston,FL,32696,(352) 528-6606,29.4402,-82.4628,Vision Christian Academy,private,school
Williston Central Christian Academy,225 SE 4th St,Williston,FL,32696,(352) 529-0900,29.3853,-82.4428,Williston Central Christian Academy,private,school
World Mission of Jesus Christ Christian Academy,13850 NW 26th Ave,Opa Locka,FL,33054,(786) 488-7951,25.9004,-80.2428,World Mission of Jesus Christ Christian Academy,private,school
Al-Falah Academy,4805 Lawrenceville Hwy NW Ste 220,Lilburn,GA,30047,(678) 380-0201,33.8951,-84.1403,Al-Falah Academy,private,school
Braselton Christian Academy,401 Zion Church Rd,Braselton,GA,30517,(706) 824-9943,34.1187,-83.7563,Braselton Christian Academy,private,school
Bright Futures Academy,1300 Joseph E Boone Blvd NW,Atlanta,GA,30314,(404) 564-7751,33.7622,-84.4304,Bright Futures Academy,private,school
Cedar Christian School,625 West Ave,Cedartown,GA,30125,(770) 748-0077,34.0113,-85.2707,Cedar Christian School,private,school
Coastal Harbor Treatment,1150 Cornell Ave,Savannah,GA,31406,(912) 692-4250,32.0123,-81.0956,Coastal Harbor Treatment,private,school
Creekside Christian Academy,175 Foster Dr.,Mcdonough,GA,30253,(770) 961-9300,33.4687,-84.2102,Creekside Christian Academy,private,school
Grace Academy,119 Powers Ferry Road,Marietta,GA,30067,(770) 895-8171,33.9492,-84.5089,Grace Academy,private,school
Griffin Christian High School,2000 W McIntosh Rd,Griffin,GA,30223,(770) 467-8198,33.271,-84.3087,Griffin Christian High School,private,school
Heritage Academy,5215 Thigpen Trl,Sale City,GA,31784,(229) 782-5651,31.262,-83.9705,Heritage Academy,private,school
Gods Heritage Christian Academy,2540 Airport Rd,Hinesville,GA,31313,(912) 877-6012,31.7833,-81.6339,Gods Heritage Christian Academy,private,school
James Madison High School,6625 the Corners Pkwy Ste 500,Norcross,GA,30092,(770) 729-8400,33.9604,-84.2371,James Madison High School,private,school
Mount De Sales Academy,851 Orange St,Macon,GA,31201,(478) 751-3240,32.8344,-83.6405,Mount De Sales Academy,private,school
New Testament Christian Academy,PO Box 129,Twin City,GA,30471,(478) 763-3937,32.5721,-82.1678,New Testament Christian Academy,private,school
Omega Learning Center,3045 Gordy Pkwy Ste 102,Marietta,GA,30066,(770) 973-0209,34.0407,-84.4647,Omega Learning Center,private,school
Omega Learning Center,2987 Chapel Hill Rd Ste 101,Douglasville,GA,30135,(770) 949-8258,33.723,-84.7334,Omega Learning Center,private,school
Omega Private Academy-Acworth,5340 Brookstone Dr NW Ste 320,Acworth,GA,30101,(770) 792-7431,33.9987,-84.7079,Omega Private Academy-Acworth,private,school
St Anne-Pacelli Catholic School,2020 Kay Circle,Columbus,GA,31907,(706) 561-8232,32.482,-84.9341,St Anne-Pacelli Catholic School,private,school
Peachtree Academy Private School,14101 Highway 278 E,Covington,GA,30014,(770) 860-8900,33.5954,-83.8164,Peachtree Academy Private School,private,school
Philadelphia Christian School,358 Hensley Rd SE,Calhoun,GA,30701,(770) 625-3233,34.4308,-84.9305,Philadelphia Christian School,private,school
Alzar School,1600 Airport Way,Cascade,ID,83611,(208) 639-9891,44.49,-116.013,Alzar School,private,school
Confluence Christian High School,635 Main Street,Lewiston,ID,83501,(208) 731-6320,46.4211,-117.025,Confluence Christian High School,private,school
Silver Valley Christian Academy,16 E Riverside Ave,Kellogg,ID,83837,(208) 783-3791,47.5387,-116.118,Silver Valley Christian Academy,private,school
American School,2200 E 170th St,Lansing,IL,60438,(708) 418-2800,41.5872,-87.5633,American School,private,school
Banner Academy West,819 N Leamington Ave Ste 1,Chicago,IL,60651,(773) 854-1188,41.8953,-87.7543,Banner Academy West,private,school
Glenoaks Therapeutic Day Schools,135 N Brandon Dr,Glendale Heights,IL,60139,(630) 671-0383,41.9316,-88.0846,Glenoaks Therapeutic Day Schools,private,school
Montessori School of Lake Forest Adolescent Prgm,32470 Harris Rd,Grayslake,IL,60030,(847) 543-0002,42.3341,-88.0145,Montessori School of Lake Forest Adolescent Prgm,private,school
Mooseheart Child City and School Inc,255 W James J Davis Dr,Mooseheart,IL,60539,(630) 906-3646,41.8239,-88.3332,Mooseheart Child City and School Inc,private,school
St Joseph Academy,310 N Ottawa St,Joliet,IL,60432,(815) 723-4567,41.5304,-88.083,St Joseph Academy,private,school
Basic Prep Academy,1402 N Belleview Pl,Indianapolis,IN,46222,(812) 240-5680,39.7862,-86.2034,Basic Prep Academy,private,school
Neighborhood Academy,3102 E 10th St,Indianapolis,IN,46201,(317) 631-0027,39.7815,-86.112,Neighborhood Academy,private,school
T C Harris School at Idtc Laf,3700 Rome Dr,Lafayette,IN,47905,(765) 448-4220,40.4217,-86.8437,T C Harris School at Idtc Laf,private,school
Bishop Heelan Catholic High School,1021 Douglas St,Sioux City,IA,51105,(712) 252-0573,42.5017,-96.4066,Bishop Heelan Catholic High School,private,school
Quakerdale Promise Academy,26866 Co Highway S55,New Providence,IA,50206,(641) 497-5294,42.3123,-93.1697,Quakerdale Promise Academy,private,school
Classical School of Wichita,6355 Willowbrook St,Wichita,KS,67218,(316) 773-9279,37.681,-97.2632,Classical School of Wichita,private,school
Pilgrim Christian School,5013 S. Dean Rd.,Hutchinson,KS,67501,(620) 860-1790,37.9949,-98.0326,Pilgrim Christian School,private,school
Lebanon Junction Christian Academy,270 S Sanders Ln,Lebanon Junction,KY,40150,(502) 833-4607,37.843,-85.7102,Lebanon Junction Christian Academy,private,school
Lincoln County Mennonite School,6805 Ky Highway 39 S,Crab Orchard,KY,40419,(606) 355-0067,37.3709,-84.5014,Lincoln County Mennonite School,private,school
Nelson County Baptist School,55 Lutheran Church Rd,Bardstown,KY,40004,(502) 212-9232,37.8552,-85.5151,Nelson County Baptist School,private,school
Crestview Mennonite School,500 Watkins Road,London,KY,40741,(606) 864-9916,37.1073,-83.9845,Crestview Mennonite School,private,school
Redemption Road Christian Academy,125 Pemberton Lane,Danville,KY,40422,(606) 669-2335,37.4715,-84.6811,Redemption Road Christian Academy,private,school
Covenant Grace Academy,2110 E McNeese St,Lake Charles,LA,70607,(337) 474-2424,30.1749,-93.1905,Covenant Grace Academy,private,school
Coastal Studies for Girls,308 Wolfes Neck Road,Freeport,ME,4032,(207) 865-9700,43.8339,-70.0792,Coastal Studies for Girls,private,school
Glenn Stratton Learning Center,16 Prescott Drive,Hinckley,ME,4944,(207) 238-4200,44.6639,-69.6297,Glenn Stratton Learning Center,private,school
Allegany Boys Camp,20700 Wagner Cutoff Rd SE,Oldtown,MD,21555,(301) 478-5721,39.5821,-78.5795,Allegany Boys Camp,private,school
Arundel Christian School,1321 Mercedes Dr Ste Q Ste Q-s,Hanover,MD,21076,(410) 859-8573,39.1654,-76.7039,Arundel Christian School,private,school
Baltimore Torah School,2416 Taney Road,Baltimore,MD,21209,(410) 585-1801,39.3679,-76.6789,Baltimore Torah School,private,school
Childrens Guild Inc,410 E Jeffrey St,Baltimore,MD,21225,(410) 269-7600,39.2341,-76.6068,Childrens Guild Inc,private,school
Christs Church Academy,401 Jonathan Street,Hagerstown,MD,21740,(240) 329-4309,39.6485,-77.7187,Christs Church Academy,private,school
Gateway Christian Academy,11017 Kempsmills Rd,Willisanssport,MD,21795,(301) 582-4595,39.6183,-77.8129,Gateway Christian Academy,private,school
Griggs International Academy,8903 Us Hwy 31,Berrien Springs,MI,49103,(269) 471-6559,41.9584,-86.3608,Griggs International Academy,private,school
High Road School of Harford County,1250 Brass Mill Rd,Belcamp,MD,21017,(410) 272-1123,39.4778,-76.2362,High Road School of Harford County,private,school
Oak Grove Classical Christian School,2106 E Churchville Rd,Bel Air,MD,21015,(410) 838-1333,39.5555,-76.288,Oak Grove Classical Christian School,private,school
Royal International Christian Academy,10939 Philadelphia Rd A1,White Marsh,MD,21162,(443) 317-8056,39.3874,-76.4272,Royal International Christian Academy,private,school
St Anns High School,4901 Eastern Ave,Hyattsville,MD,20782,(301) 559-5500,38.9468,-76.9781,St Anns High School,private,school
Community Christian School,39 S Broad St,Westfield,MA,1085,(413) 564-0316,42.1118,-72.748,Community Christian School,private,school
Granite Academy,6 Columbian St,Braintree,MA,2184,(781) 380-3945,42.184,-70.9746,Granite Academy,private,school
Berkshire Waldorf High School,14 Pine Street,Stockbridge,MA,1262,(413) 298-3800,42.2846,-73.3101,Berkshire Waldorf High School,private,school
Aim High School,29230 W 12 Mile Rd,Farmingtn Hls,MI,48334,(248) 702-6922,42.5009,-83.3345,Aim High School,private,school
Austin Catholic Academy High School,24125 26 Mile Rd,Ray Township,MI,48096,(586) 749-7900,42.7198,-82.8685,Austin Catholic Academy High School,private,school
Grandville Calvin Christian School,3750 Ivanrest Ave SW,Grandville,MI,49418,(616) 532-2373,42.8962,-85.7435,Grandville Calvin Christian School,private,school
Great Lakes Mennonite School,720 Ann Arbor Trl,Clare,MI,48617,(989) 944-1519,43.8262,-84.787,Great Lakes Mennonite School,private,school
Mesivta of Toledo,4200 Walnut Lake Rd,West Bloomfield,MI,48323,(248) 738-7230,42.5581,-83.3656,Mesivta of Toledo,private,school
St Catherine of Siena Academy,28200 Napier Rd,Wixom,MI,48393,(248) 946-4848,42.4927,-83.5552,St Catherine of Siena Academy,private,school
The New Millennium Academy,3427 Adams Ave,Saginaw,MI,48602,(989) 484-7363,43.4316,-83.9914,The New Millennium Academy,private,school
Delasalle High School,1 De La Salle Dr,Minneapolis,MN,55401,(612) 676-7600,44.9866,-93.2615,Delasalle High School,private,school
Yeshiva of Minneapolis,3115 Ottawa Ave S,St. Louis Park,MN,55416,(952) 920-8673,44.9462,-93.3398,Yeshiva of Minneapolis,private,school
Northstar Academy,3790 Goodman Rd E,Southaven,MS,38672,(662) 892-4380,34.964,-89.9222,Northstar Academy,private,school
The Pentecostal Christian Academy,1811 Old Marion Road,Meridian,MS,39301,(601) 693-7350,32.3761,-88.6854,The Pentecostal Christian Academy,private,school
Fr Tolton Catholic High School,3351 E Gans Rd,Columbia,MO,65201,(573) 445-7700,38.8911,-92.289,Fr Tolton Catholic High School,private,school
Highlands Academy,5506 Cambridge Ave,Kansas City,MO,64129,(816) 924-6565,39.0246,-94.505,Highlands Academy,private,school
Mizzou K 12 Online/Mu High School,136 Clark Hall,Columbia,MO,65211,(573) 884-3974,38.9432,-92.3327,Mizzou K 12 Online/Mu High School,private,school
Acadia Montana,55 Basin Creek Rd,Butte,MT,59701,(406) 496-6347,45.9335,-112.511,Acadia Montana,private,school
Mission Valley Christianacademy,38907 Mt Hwy 35,Polson,MT,59860,(406) 883-6858,47.6874,-114.082,Mission Valley Christianacademy,private,school
World Class Academy,163 N Main Ave,White Salmon,WA,98672,(541) 908-5937,45.7285,-121.487,World Class Academy,private,school
First Baptist School,814 Main St,Plattsmouth,NE,68048,(402) 296-5948,41.0116,-95.8892,First Baptist School,private,school
Ohama Montessori High School,7001 Oak St,Omaha,NE,68106,(402) 614-9074,41.232,-96.0226,Ohama Montessori High School,private,school
Lone Mountain Academy,4295 N Rancho Dr Ste 110,Las Vegas,NV,89130,(702) 633-4240,36.2373,-115.233,Lone Mountain Academy,private,school
Newton Learning Center,700 Greenbrae Dr,Sparks,NV,89431,(775) 358-0808,39.5475,-119.751,Newton Learning Center,private,school
Nfi Midway Shelter,2554 State Route 103,Bradford,NH,3221,(603) 938-5014,43.2673,-71.9291,Nfi Midway Shelter,private,school
Second Start,450 North State St,Concord,NH,3301,(603) 225-3318,43.2421,-71.569,Second Start,private,school
The Cornerstone School,146 High St,Stratham,NH,3885,(603) 772-4349,43.0221,-70.8617,The Cornerstone School,private,school
Universal School of Life,3 Angels Rd,Colebrook,NH,3576,(603) 237-9949,44.9335,-71.4773,Universal School of Life,private,school
Abundant Life Christian School,43 S Jefferson Rd,Whippany,NJ,7981,(973) 888-2083,40.8243,-74.4368,Abundant Life Christian School,private,school
Bet Yaakov of the Jersey Shore,200 Wall Street,West Long Branch,NJ,7764,(732) 229-0680,40.2856,-74.0179,Bet Yaakov of the Jersey Shore,private,school
Elyon Learning Center Academy,16 Stratford Pl,Newark,NJ,7108,(973) 342-4209,40.7235,-74.1907,Elyon Learning Center Academy,private,school
Horizon High School,71-77 Okner Pkwy,Livingston,NJ,7039,(973) 535-1999,40.8015,-74.3547,Horizon High School,private,school
Sawtelle Learning Center,208 S Mountain Ave,Montclair,NJ,7042,(973) 744-0615,40.8062,-74.2328,Sawtelle Learning Center,private,school
The Childrens Therapy Center,321 Prospect St,Midland Park,NJ,7432,(201) 612-5677,41.0025,-74.1382,The Childrens Therapy Center,private,school
Trinity Hall,900 Leonardville Rd,Leonardo,NJ,7737,(732) 291-1297,40.4097,-74.0545,Trinity Hall,private,school
Yeshiva Gedola of Woodlake Village,70 Pinehurst Dr,Lakewood,NJ,8701,(732) 730-2808,40.0842,-74.1706,Yeshiva Gedola of Woodlake Village,private,school
Abundant Life Academy,389 Broadway,Kingston,NY,12401,(845) 338-2703,41.926,-73.9953,Abundant Life Academy,private,school
Christ the King Preparatory Academy,704 91st St,Niagara Falls,NY,14304,(716) 553-6318,43.0813,-78.9581,Christ the King Preparatory Academy,private,school
Congregation Machon Tiferes Bachurim,17 Cameo Ridge Rd,Monsey,NY,10952,(914) 714-8183,41.1192,-74.0732,Congregation Machon Tiferes Bachurim,private,school
Congregation Mesifta Ohr Hatalmud,701 Blooming Grove Tpke Turpk,New Windsor,NY,12553,(845) 784-4020,41.4593,-74.0467,Congregation Mesifta Ohr Hatalmud,private,school
Pascack Valley Learning Center,27 Church Rd,Airmont,NY,10952,(845) 357-0980,41.0983,-74.1121,Pascack Valley Learning Center,private,school
Dominican Academy,44 E 68th St,New York,NY,10065,(212) 744-0195,40.7686,-73.9666,Dominican Academy,private,school
Ezra Hatzvy Academy,2555 Nostrand Ave,Brooklyn,NY,11210,(718) 975-1041,40.6224,-73.946,Ezra Hatzvy Academy,private,school
Gersh Academy- Inc,307 Eagle Ave,West Hempstead,NY,11552,(516) 986-9580,40.6867,-73.654,Gersh Academy- Inc,private,school
Harriet Tubman Democratic High School,59 Elizabeth St,Albany,NY,12202,(518) 330-8385,42.6406,-73.7618,Harriet Tubman Democratic High School,private,school
J G B Education Services,15 W 65th St 3rd Floor,New York,NY,10023,(212) 769-6306,40.7726,-73.9804,J G B Education Services,private,school
John a Coleman School,300 Corporate Blvd S,Yonkers,NY,10701,(914) 294-6173,40.969,-73.8787,John a Coleman School,private,school
Longview School,83 Main St,Brewster,NY,10509,(845) 259-8259,41.3943,-73.6166,Longview School,private,school
Rochester School for the Deaf,1545 Saint Paul St,Rochester,NY,14621,(585) 336-5800,43.1851,-77.6244,Rochester School for the Deaf,private,school
Christian Heritage School,2191 State Route 5,Utica,NY,13502,(315) 790-5602,43.1019,-75.1551,Christian Heritage School,private,school
Schechter School of Long Island,1 Barbara Lane,Jericho,NY,11753,(516) 935-1441,40.7835,-73.5229,Schechter School of Long Island,private,school
Yeshivat Darche Eres Inc,49 Avenue T,Brooklyn,NY,11223,(718) 232-0100,40.5984,-73.9832,Yeshivat Darche Eres Inc,private,school
Bethany Christian School,584 Tower Rd,Thomasville,NC,27360,(336) 472-3389,35.8577,-80.0598,Bethany Christian School,private,school
Christ the King Catholic High School,2011 Crusader Way,Huntersville,NC,28078,(704) 799-4400,35.4444,-80.7604,Christ the King Catholic High School,private,school
Bethel Christian Academy,12021 S Us 19e,Spruce Pine,NC,28777,(828) 765-0510,35.9361,-82.0093,Bethel Christian Academy,private,school
Crossroads Christian School of Statesville,1950 Salisbury Hwy,Statesville,NC,28677,(704) 871-1515,35.7622,-80.8398,Crossroads Christian School of Statesville,private,school
Daniel Academy,484 Cabarrus Ave W,Concord,NC,28027,(704) 931-8325,35.3997,-80.5959,Daniel Academy,private,school
Faith Christian Academy,127 Boyd Dr,Flat Rock,NC,28731,(828) 435-0670,35.2783,-82.4509,Faith Christian Academy,private,school
Just Right Academy,4723 Erwin Rd.,Durham,NC,27705,(919) 932-0360,35.9897,-78.9868,Just Right Academy,private,school
Lake House Academy,447 Lilly Pad Ln,Flat Rock,NC,28731,(828) 355-4595,35.2844,-82.4383,Lake House Academy,private,school
Liberty Preparatory Christian Academy,246 Blume Rd,Mooresville,NC,28117,(704) 660-3933,35.5773,-80.9069,Liberty Preparatory Christian Academy,private,school
Mind and Soul School,56 Three Hunts Dr,Pembroke,NC,28372,(910) 827-1169,34.6461,-79.1686,Mind and Soul School,private,school
Mount Zion Christian Academy,9709 Nc Highway 72,Pembroke,NC,28372,(910) 521-0358,34.7228,-79.1618,Mount Zion Christian Academy,private,school
New Bern Christian Academy,2911 Old Cherry Point Rd,New Bern,NC,28560,(252) 637-2704,35.0597,-77.0134,New Bern Christian Academy,private,school
One7 Academy,2223 Eastway Drive,Charlotte,NC,28205,(704) 493-7043,35.226,-80.7752,One7 Academy,private,school
Pamlico Christian Academy,11089 Highway 55 E,Grantsboro,NC,28529,(252) 745-0462,35.1427,-76.8383,Pamlico Christian Academy,private,school
Pope John Paul II Catholic High School,2725 E 14th St,Greenville,NC,27858,(252) 215-1224,35.5796,-77.3425,Pope John Paul II Catholic High School,private,school
Unity Christian Academy,1501 Haw Branch Rd,Chocowinity,NC,27817,(252) 946-5083,35.4306,-77.0837,Unity Christian Academy,private,school
University Christian High School,629 8th Street NE,Hickory,NC,28601,(828) 855-2995,35.7373,-81.3263,University Christian High School,private,school
Victory Baptist Christian Academy,2073 Oregon Hill Rd,Ruffin,NC,27326,(336) 939-3566,36.453,-79.639,Victory Baptist Christian Academy,private,school
Willow Tree Community School,1050 Sam Lattimore Rd,Shelby,NC,28152,(980) 295-2661,35.2562,-81.5935,Willow Tree Community School,private,school
Montessori High School at University Circle,11025 Magnolia Dr,Cleveland,OH,44106,(216) 421-3033,41.515,-81.6094,Montessori High School at University Circle,private,school
Phoenix School,888 Jonathan Ave,Akron,OH,44306,(330) 784-0408,41.0318,-81.4952,Phoenix School,private,school
Sunny View,14402 Harrison Rd,Apple Creek,OH,44606,(330) 345-6771,40.6958,-81.7309,Sunny View,private,school
Faith Tabernacle Christian Academy,1584 Ga Highway 46,Soperton,GA,30457,(478) 278-2742,32.3141,-82.6845,Faith Tabernacle Christian Academy,private,school
Ketchum Adventist Academy,35369 S. Hwy 82,Vinita,OK,74301,(918) 782-2986,36.5063,-95.0597,Ketchum Adventist Academy,private,school
Mission Academy,7101 N Classen Blvd,Oklahoma City,OK,73116,(405) 843-9100,35.5433,-97.5275,Mission Academy,private,school
Tulsa Hope Academy,P.o.box3632,Tulsa,OK,74101,(918) 398-8192,36.1465,-95.987,Tulsa Hope Academy,private,school
Victory Life Child Development Center,3412 W. University Blvd.,Durant,OK,74701,(580) 920-0850,34.0058,-96.4117,Victory Life Child Development Center,private,school
Benton County Learning Opportunity Center,545 SW 2nd St Ste a,Corvallis,OR,97333,(541) 752-1010,44.5593,-123.262,Benton County Learning Opportunity Center,private,school
Naya Early College Academy,5135 NE Columbia Blvd,Portland,OR,97218,(503) 972-2461,45.5713,-122.609,Naya Early College Academy,private,school
Urban Ed Alternative School Outside in School,1195 SW 11th Ave,Portland,OR,97205,(503) 445-0976,45.517,-122.685,Urban Ed Alternative School Outside in School,private,school
Breezy Hollow Amish School,903 Center Rd,Mifflintown,PA,17059,,40.554,-77.3196,Breezy Hollow Amish School,private,school
Bridge Way School,4101 Freeland Ave,Philadelphia,PA,19128,(267) 437-2194,40.0258,-75.212,Bridge Way School,private,school
Calvary Holiness Academy,930 Orchard Rd,Millmont,PA,17845,(570) 922-1470,40.8946,-77.134,Calvary Holiness Academy,private,school
Countryside School,38 Heck Road,Jersey Shore,PA,17740,,41.1346,-77.2505,Countryside School,private,school
Adelphoi Education at Altoona,600s. Jaggard St.,Altoona,PA,16602,(814) 204-0018,40.502,-78.3921,Adelphoi Education at Altoona,private,school
Cristo Rey Philadelphia High School,5218 N Broad St,Philadelphia,PA,19141,(215) 219-3943,40.0325,-75.1462,Cristo Rey Philadelphia High School,private,school
Fairview Mennonite School,140 Jackson Rd,Lebanon,PA,17042,(717) 949-3484,40.3451,-76.3455,Fairview Mennonite School,private,school
Freemont View School,308 Fremont Rd,Nottingham,PA,19362,,39.744,-76.066,Freemont View School,private,school
Harborcreek Youth Services,5712 Iroquois Ave,Harborcreek,PA,16421,(814) 899-7664,42.1615,-79.9724,Harborcreek Youth Services,private,school
Highlands Hospital Regional Center for Autism,323 Breakneck Rd,Connellsville,PA,15425,(724) 603-3360,40.0312,-79.5678,Highlands Hospital Regional Center for Autism,private,school
Hill Top Special Ed School,9580 Back Mountain Rd,Milroy,PA,17063,,40.7336,-77.5756,Hill Top Special Ed School,private,school
Hope Academy,3899 Sticks Rd,Glen Rock,PA,17327,(717) 235-3198,39.749,-76.7915,Hope Academy,private,school
Longmore Academy,521 Route 228,Mars,PA,16046,(724) 625-1140,40.6929,-79.981,Longmore Academy,private,school
Meadows School,132 the Meadows Dr,Centre Hall,PA,16828,(814) 592-9383,40.8115,-77.7128,Meadows School,private,school
New Directions,125 Chaffee St,Uniontown,PA,15401,(724) 434-5437,39.8946,-79.7035,New Directions,private,school
New Story,1300 New Holland Rd Ste 101,Reading,PA,19607,(610) 750-8350,40.3092,-75.944,New Story,private,school
Nhs School,3 Oak St,Ellsworth,PA,15331,(724) 239-2539,40.1083,-80.0182,Nhs School,private,school
Nhs School Somerset,892 Stoystown Rd,Somerset,PA,15501,(814) 443-3113,40.0252,-79.0509,Nhs School Somerset,private,school
Nhs School,820 Carbon Rd,Greensburg,PA,15601,(724) 600-7230,40.2916,-79.5582,Nhs School,private,school
Nhs School,316 William St,Scranton,PA,18508,(570) 496-4300,41.441,-75.6577,Nhs School,private,school
Pathways Education Center,370 Seneca St,Oil City,PA,16301,(814) 678-0093,41.4397,-79.7089,Pathways Education Center,private,school
Philadelphia Free School,2001 Christian St,Philadelphia,PA,19146,(215) 218-9586,39.9414,-75.1758,Philadelphia Free School,private,school
Prospect Grove High School,1290 Prospect Rd,Columbia,PA,17512,(717) 285-0424,40.0321,-76.4535,Prospect Grove High School,private,school
River Rock Academy,220 Country Club Rd,Red Lion,PA,17356,(717) 244-7453,39.8939,-76.6093,River Rock Academy,private,school
Rock Solid Academy,106 S Lehigh St Ste 201,Shavertown,PA,18708,(570) 696-5466,41.3089,-75.9328,Rock Solid Academy,private,school
Saddlers Run School,12304 Metztown Rd,Allensville,PA,17002,,40.5112,-77.8426,Saddlers Run School,private,school
St Joseph'S Academy,901 Boalsburg Pike,Boalsburg,PA,16827,(814) 808-6118,40.786,-77.7945,St Joseph'S Academy,private,school
Southwood School,311 Station St,Bridgeville,PA,15017,(724) 338-4200,40.359,-80.1134,Southwood School,private,school
Springtime School,170 Seventh Ron Suite 100,Newtown,PA,18940,(215) 579-0670,40.2247,-74.9082,Springtime School,private,school
Summitview Christian School,3656 Old Philadelphia Pike,Gordonville,PA,17529,(717) 823-0891,40.0387,-76.1035,Summitview Christian School,private,school
Trauger Mennonite Church School,4375 State Route 981,Mount Pleasant,PA,15666,(724) 424-9430,40.2229,-79.4757,Trauger Mennonite Church School,private,school
Triumphant Life Christian Academy,5651 Perry Hwy,Erie,PA,16509,(814) 464-1554,42.0828,-80.0562,Triumphant Life Christian Academy,private,school
Valley Day School,300 Allendale Dr,Morrisville,PA,19067,(215) 295-1155,40.2033,-74.8119,Valley Day School,private,school
Vantage Academy,310 Schoolhouse Rd,Souderton,PA,18964,(215) 721-7861,40.2839,-75.3602,Vantage Academy,private,school
Vantage Academy at Upper Merion,633 E 4th St,Bridgeport,PA,19405,(484) 674-3334,40.1035,-75.3308,Vantage Academy at Upper Merion,private,school
Vista School,1021 Springboard Dr,Hershey,PA,17033,(717) 583-5102,40.2859,-76.6939,Vista School,private,school
Weber Road School,270 Weber Rd School,Luthersburg,PA,15848,,41.0366,-78.7484,Weber Road School,private,school
West Cocalico Mennonite School,105 Marsh Rd,Reinholds,PA,17569,(717) 336-0770,40.2855,-76.1485,West Cocalico Mennonite School,private,school
Bradley School - Westerly Site,93 Tower St,Westerly,RI,2891,(401) 606-4100,41.3795,-71.8141,Bradley School - Westerly Site,private,school
High Road School of Providence,100 Houghton St,Providence,RI,2904,(401) 751-5800,41.8564,-71.4358,High Road School of Providence,private,school
The Bradley School,2820 E Main Rd,Portsmouth,RI,2871,(401) 682-1816,41.6064,-71.2484,The Bradley School,private,school
Comenius School for Creative Leadership,8160 Regent Pkwy,Fort Mill,SC,29715,(803) 547-3223,35.0638,-80.9114,Comenius School for Creative Leadership,private,school
Harbor Christian Academy,26 2nd St,Greenville,SC,29611,(864) 242-3096,34.8507,-82.4288,Harbor Christian Academy,private,school
Harvest Time International Academy,227 Huger St,Charleston,SC,29403,(843) 530-6215,32.8028,-79.9424,Harvest Time International Academy,private,school
New Holland Mennonite School,2539 Old 96 Indian Trl,Batesburg,SC,29006,(803) 439-2650,33.7045,-81.4824,New Holland Mennonite School,private,school
Black Hills Lutheran Schools,910 Wood Ave,Rapid City,SD,57701,(605) 721-0760,44.0936,-103.22,Black Hills Lutheran Schools,private,school
Lutheran High School of Sioux Falls,5000 S Western Ave,Sioux Falls,SD,57108,(605) 275-2024,43.4983,-96.7476,Lutheran High School of Sioux Falls,private,school
Windswept Academy,121 Cedar Street,Eagle Butte,SD,57625,(605) 200-1857,44.9986,-101.233,Windswept Academy,private,school
Antioch Baptist Christian Academy,5709 N Broadway St,Knoxville,TN,37918,(865) 688-0780,36.0482,-83.9285,Antioch Baptist Christian Academy,private,school
Blue Springs Christian Academy,3265 Blue Springs Rd,Strawberry Plains,TN,37871,(865) 932-7603,36.0583,-83.647,Blue Springs Christian Academy,private,school
Christian Academy in the Smokies,1625 Old Newport Hwy,Sevierville,TN,37862,(865) 774-0012,35.861,-83.5045,Christian Academy in the Smokies,private,school
Dayspring Baptist Christian Academy,935 W Oldham Ave,Knoxville,TN,37921,(865) 521-1298,35.9791,-83.9428,Dayspring Baptist Christian Academy,private,school
Deo Christian,134 New Bethel Rd,Gainesboro,TN,38562,(931) 704-7766,36.363,-85.7225,Deo Christian,private,school
Freedom Hill Christian School,4300 Highway 43 N,Ethridge,TN,38456,(931) 829-2765,35.3526,-87.2798,Freedom Hill Christian School,private,school
The Academy for G.o.D.,401 Center St,Old Hickory,TN,37138,(615) 722-7107,36.226,-86.6331,The Academy for G.o.D.,private,school
G4s Academy,279 Stewarts Ferry Pike,Nashville,TN,37214,(615) 921-8901,36.1606,-86.6444,G4s Academy,private,school
Community Christian Academy,316 W Old Andrew Johnson Hwy,Jefferson City,TN,37760,(865) 471-0700,36.1183,-83.5065,Community Christian Academy,private,school
Learning Lab of Green Hills,3815 Cleghorn Ave,Nashville,TN,37215,(615) 321-7272,36.1088,-86.819,Learning Lab of Green Hills,private,school
Lighthouse Christian Academy,8593 Hiwassee St NW,Charleston,TN,37310,(423) 665-1356,35.2772,-84.7635,Lighthouse Christian Academy,private,school
Ludic,383 Parker St.,Cleveland,TN,37311,(423) 614-8190,35.16,-84.8727,Ludic,private,school
Macon Christian Academy,518 Church & 707 Warrior Lane,Lafayette,TN,37083,(615) 666-8131,36.516,-86.0189,Macon Christian Academy,private,school
Madison Oaks Academy,49 Old Hickory Blvd,Jackson,TN,38305,(731) 668-5880,35.6542,-88.8252,Madison Oaks Academy,private,school
Memphis Catholic High School and Middle School,61 N. McLean Boulevard,Memphis,TN,38104,,35.1398,-90.0008,Memphis Catholic High School and Middle School,private,school
Self School,4455 Benders Ferry Rd,Mount Juliet,TN,37122,(615) 649-9463,36.294,-86.4988,Self School,private,school
Shenandoah Ranch Academy,293 Shenandoah Rd,Calhoun,TN,37309,(423) 336-3835,35.2483,-84.6615,Shenandoah Ranch Academy,private,school
Spectrum Academy,3125 Ironwood Dr,Nashville,TN,37214,(615) 866-9273,36.1546,-86.6522,Spectrum Academy,private,school
Lebanon Academy,3065 Murfreesboro Rd,Lebanon,TN,37090,(615) 443-7222,36.1216,-86.3237,Lebanon Academy,private,school
Aesa Prep Academy,14101 Canonade,Austin,TX,78737,(512) 774-4822,30.1991,-98.0061,Aesa Prep Academy,private,school
Austin Tennis Academy College Prep,6800 Spanish Oaks Club Blvd,Austin,TX,78738,(512) 276-2272,30.3045,-97.9489,Austin Tennis Academy College Prep,private,school
Century Christian Academy,14400 Immanuel Rd,Pflugerville,TX,78660,(512) 989-3698,30.4123,-97.6249,Century Christian Academy,private,school
Crimson Christian Academy,7020 S Hwy 59,Burke,TX,75941,(936) 639-1222,31.2437,-94.7589,Crimson Christian Academy,private,school
Founders Christian School,24724 Aldine Westfield Rd,Spring,TX,77373,(281) 602-8006,30.0648,-95.4025,Founders Christian School,private,school
Grace Academy of North Texas,4255 E Prosper Trl,Prosper,TX,75078,(469) 287-7111,33.2486,-96.7352,Grace Academy of North Texas,private,school
Harvest Christian Academy,1000 Las Alamedas,Edinburg,TX,78541,(956) 289-1616,26.3144,-98.2065,Harvest Christian Academy,private,school
Houston Quran Academy,1902 Baker Rd,Houston,TX,77094,(281) 717-4622,29.7612,-95.7129,Houston Quran Academy,private,school
John Paul II Catholic High School,6720 Fm 482,New Braunfels,TX,78132,(830) 643-0802,29.6446,-98.2274,John Paul II Catholic High School,private,school
Juan Diego Academy,5208 South Fm 494,Mission,TX,78572,(956) 583-2752,26.1538,-98.3263,Juan Diego Academy,private,school
Liberty Baptist School,602 Manco Rd,Lewisville,TX,75067,(972) 436-3493,33.0411,-97.0158,Liberty Baptist School,private,school
Llano Christian Academy,904 Berry Street,Llano,TX,78643,(325) 247-4942,30.7491,-98.6771,Llano Christian Academy,private,school
Logos Preparatory School,13303 Southwest Fwy,Sugar Land,TX,77478,(281) 565-6467,29.6252,-95.5949,Logos Preparatory School,private,school
Mariposa Montessori School,7809 Brodie Ln,Austin,TX,78745,(512) 428-4280,30.2043,-97.8363,Mariposa Montessori School,private,school
Resolution Ranch Academy,2274 County Road 203 Loop,Cameron,TX,76520,(254) 697-2422,30.8783,-97.0293,Resolution Ranch Academy,private,school
Seguin Christian Academy,1456 E Kingsbury Rd,Seguin,TX,78155,(830) 433-4131,29.5875,-97.9415,Seguin Christian Academy,private,school
Southwest Christian School-Prep Campus,6901 Altamesa Blvd,Fort Worth,TX,76123,(817) 294-9596,32.6424,-97.445,Southwest Christian School-Prep Campus,private,school
Xavier Educational Academy,3642 University Blvd Ste 101,Houston,TX,77005,(832) 533-2652,29.7152,-95.4335,Xavier Educational Academy,private,school
Daniels Academy,906 S 300 W,Heber City,UT,84032,(435) 709-7050,40.4963,-111.419,Daniels Academy,private,school
Kolob Canyon Rtc,1338 E 600 S,New Harmony,UT,84757,(435) 865-1437,37.4676,-113.276,Kolob Canyon Rtc,private,school
Evoke Therapy Programs,2711 Santa Clara Dr Ste 400,Santa Clara,UT,84765,(435) 674-9310,37.13,-113.647,Evoke Therapy Programs,private,school
Williamsburg Academy,32 E 100 S Ste 204,St. George,UT,84770,(800) 200-6869,37.1061,-113.583,Williamsburg Academy,private,school
Inspire for Autism,130 Austine Dr Ste 240,Brattleboro,VT,5301,(802) 251-7301,42.8422,-72.5745,Inspire for Autism,private,school
Bina High School,425 Washington Park,Norfolk,VA,23517,(757) 627-2462,36.8668,-76.2918,Bina High School,private,school
The Founders Center,6818 W Grace St,Richmond,VA,23226,(804) 355-1011,37.5941,-77.5243,The Founders Center,private,school
Kempsville Center for Behavioral Health,860 Kempsville Rd,Norfolk,VA,23502,(757) 461-4565,36.8529,-76.1902,Kempsville Center for Behavioral Health,private,school
Omega Private Academy - Chesterfield,7061 Commons Plz Ste B,Chesterfield,VA,23832,(804) 778-7868,37.3754,-77.5095,Omega Private Academy - Chesterfield,private,school
Cedar Park Christian - Mountlake Terrace Campus,23607 54th Ave W,Mountlake Terrace,WA,98043,(425) 774-7773,47.784,-122.305,Cedar Park Christian - Mountlake Terrace Campus,private,school
Grace Christian Academy,35 North Clark Ave,Republic,WA,99166,(509) 994-1458,48.6481,-118.738,Grace Christian Academy,private,school
Greenways Academy of Washington,1934 E Isaacs Ave,Walla Walla,WA,99362,(509) 593-5300,46.0749,-118.306,Greenways Academy of Washington,private,school
Pacific Learning Academy,22525 S.e. 64th Pl,Issaquah,WA,98027,(425) 562-3545,47.5438,-122.039,Pacific Learning Academy,private,school
Stella Maris Academy,410 4th Ave N,Edmonds,WA,98020,(425) 268-2680,47.8144,-122.376,Stella Maris Academy,private,school
Sterling West Seattle Campus,9205 3rd Ave SW,Seattle,WA,98106,(206) 214-1011,47.5206,-122.339,Sterling West Seattle Campus,private,school
The Well-Trained Mind Montessori,19455 136th Pl SE,Renton,WA,98058,(206) 769-1331,47.4271,-122.16,The Well-Trained Mind Montessori,private,school
Bishop Donahue Memorial High School,325 Logan St,Mcmechen,WV,26040,(304) 233-3850,39.993,-80.7305,Bishop Donahue Memorial High School,private,school
Bmf Christian,Johnson Run Road,Petersburg,WV,26847,(304) 749-8211,38.9929,-79.1637,Bmf Christian,private,school
Chestnut Mountain Ranch,244 Ponderosa Ponds Rd,Morgantown,WV,26508,(304) 241-1709,39.5779,-79.9175,Chestnut Mountain Ranch,private,school
Common Threads Family Resource Center,5979 Siggelkow Rd,Mcfarland,WI,53558,(608) 838-8999,43.0261,-89.2773,Common Threads Family Resource Center,private,school
Institute of Kings and Priests Inc,12201 W Burleigh St Ste 10,Milwaukee,WI,53222,(414) 699-1962,43.0742,-88.0656,Institute of Kings and Priests Inc,private,school
Resurrection Lutheran School,1197 Dyke Avenue Private,Adams,WI,53910,(608) 963-0955,43.9087,-89.7763,Resurrection Lutheran School,private,school
Rock County Christian School,916 Bushnell,Beloit,WI,53511,(608) 365-7378,42.5014,-89.0265,Rock County Christian School,private,school
Transcenter for Youth/El Puente High School,1127 S 35th St,Milwaukee,WI,53215,(414) 672-1237,43.0195,-87.9577,Transcenter for Youth/El Puente High School,private,school
Lincoln Marti,28800 SW 152nd Ave,Homestead,FL,33033,(305) 245-5533,25.4984,-80.4373,Lincoln Marti,private,school
Lion of Judah,1056 N Pine Hills Rd,Orlando,FL,32808,(407) 557-8116,28.5614,-81.4502,Lion of Judah,private,school
Pha Preparatory School,140 Pompei Dr.,Kissimmee,FL,34758,(407) 873-6867,28.1628,-81.4787,Pha Preparatory School,private,school
School of the Ozarks,1 Opportunity Ave,Point Lookout,MO,65726,(417) 690-2325,36.6161,-93.2392,School of the Ozarks,private,school
Little Bear Child Development and,119 E Herrera,Hatch,NM,87937,(575) 267-8230,32.6709,-107.153,Little Bear Child Development and,private,school
Maayan Torah Day School,2900 SW Peaceful Lane,Portland,OR,97239,(503) 245-5568,45.4836,-122.705,Maayan Torah Day School,private,school
Aurora School,601 Catoctin Cir NE,Leesburg,VA,20176,(540) 751-1414,39.1238,-77.5523,Aurora School,private,school
Demi/Good Shepherd School & Day Care,109 117 Community Dr,Waynesboro,VA,22980,(540) 932-2060,38.0847,-78.9312,Demi/Good Shepherd School & Day Care,private,school
Earthsong Community School,227 N Lewis St,Lexington,VA,24450,(540) 464-1346,37.784,-79.4343,Earthsong Community School,private,school
Faith Christian Academy,10606 Benchmark Rd,Fredericksburg,VA,22408,(540) 899-2356,38.252,-77.4302,Faith Christian Academy,private,school
Great Bridge Christian Academy,700 Mount Pleasant Rd,Chesapeake,VA,23322,(757) 482-4688,36.7054,-76.213,Great Bridge Christian Academy,private,school
Matthew'S Center for Visual Learning,10651 Lomond Dr,Manassas,VA,20109,(703) 369-2976,38.7821,-77.5148,Matthew'S Center for Visual Learning,private,school
Solid Rock Baptist Church,131 Old Colony Rd,Madison Heights,VA,24572,(434) 528-0325,37.42,-79.122,Solid Rock Baptist Church,private,school
St Stephens St Agnes Dayschool,400 Fontaine St,Alexandria,VA,22302,(703) 212-2730,38.825,-77.0695,St Stephens St Agnes Dayschool,private,school
Tea Christian Academy,2600 East South Blvd Suite 180,Montgomery,AL,36116,(334) 517-1717,32.3263,-86.256,Tea Christian Academy,private,school
Brightmont Academy,6990 E Shea Blvd Suite 120,Scottsdale,AZ,85254,(480) 948-2800,33.5827,-111.931,Brightmont Academy,private,school
Chrysalis Academy Day School for Children with Aut,600 E Baseline Rd,Tempe,AZ,85283,(480) 839-6000,33.3788,-111.932,Chrysalis Academy Day School for Children with Aut,private,school
Excelsius Academy,17006 Magnolia St,Fountain Valley,CA,92708,(714) 841-4800,33.7153,-117.972,Excelsius Academy,private,school
Meira Academy,3921 Fabian Way,Palo Alto,CA,94303,(650) 485-3587,37.4236,-122.104,Meira Academy,private,school
The University of America High School,38397 Innovation Ct Ste 101,Murrieta,CA,92563,(951) 239-6186,33.5605,-117.134,The University of America High School,private,school
Yeshivat Ohr Chanoch,8906 W Pico Blvd,Los Angeles,CA,90035,(310) 274-9800,34.0549,-118.386,Yeshivat Ohr Chanoch,private,school
Bolder Pathway School,320 E 1st Ave Ste 101,Broomfield,CO,80020,(720) 420-9266,39.9155,-105.066,Bolder Pathway School,private,school
Augustine Classical Academy,480 South Kipling St.,Lakewood,CO,80226,(720) 446-6286,39.7076,-105.109,Augustine Classical Academy,private,school
The Peak School,40 West Main St,Frisco,CO,80443,(970) 368-5601,39.5747,-106.103,The Peak School,private,school
Kids First Academy,18883 Washington St.,Lincoln,DE,19960,(302) 339-3750,38.8699,-75.4218,Kids First Academy,private,school
Academy of Ability,130 E Marks St,Orlando,FL,32803,(407) 244-9810,28.5565,-81.3757,Academy of Ability,private,school
Dr Dd Brown Christian Academy of Hope,907 SW 3rd St,Ocala,FL,34471,(352) 433-2217,29.1842,-82.1468,Dr Dd Brown Christian Academy of Hope,private,school
New Life Christian Academy,2140 N.w. 2nd St.,Pompano Beach,FL,33069,(954) 536-9319,26.2332,-80.152,New Life Christian Academy,private,school
The Broach School-Bradenton,2615 26th St W,Bradenton,FL,34205,(941) 751-2525,27.4763,-82.5871,The Broach School-Bradenton,private,school
Western General Education,1251 NW 54th St,Miami,FL,33142,(305) 456-3943,25.8249,-80.2175,Western General Education,private,school
Alexsander Academy,1090 Powers Pl Ste a,Alpharetta,GA,30009,(770) 777-0475,34.0797,-84.296,Alexsander Academy,private,school
Little City Foundation Childbridge Center for Educ,1760 W Algonquin Rd,Palatine,IL,60067,(847) 221-7752,42.0875,-88.0835,Little City Foundation Childbridge Center for Educ,private,school
"Vine Academy, Llc",125 S Vine St,Hinsdale,IL,60521,(630) 423-5916,41.8012,-87.9338,"Vine Academy, Llc",private,school
Youthbuild Academy,360 Wylie Dr Ste 905,Normal,IL,61761,(309) 454-3898,40.4996,-89.0372,Youthbuild Academy,private,school
Highlands Latin School,2800 Frankfort Ave,Louisville,KY,40206,(502) 895-5333,38.2544,-85.6901,Highlands Latin School,private,school
Kingston Christian Academy,8951 Kingston Rd,Shreveport,LA,71118,(318) 688-5801,32.4073,-93.7784,Kingston Christian Academy,private,school
Cats Academy Boston,575 Washington St,Newton,MA,2458,(857) 400-9700,42.3546,-71.1971,Cats Academy Boston,private,school
Heritage Baptist Academy,5911 Terry Rd,Byram,MS,39272,(601) 373-2708,32.1823,-90.2689,Heritage Baptist Academy,private,school
Luc Boys School,296 Boys Ranch Rd,Lampe,MO,65681,(417) 779-5374,36.5227,-93.5075,Luc Boys School,private,school
Farming for the Future Academy,400 Veterans Drive,Columbia Falls,MT,59912,(406) 253-4369,48.3587,-114.21,Farming for the Future Academy,private,school
Augustan Classical Academy,7 N Main St,Mechanicville,NY,12118,(518) 541-3911,42.9032,-73.6867,Augustan Classical Academy,private,school
Hope Academy,7655 Bruton Smith Blvd,Concord,NC,28027,(704) 999-2436,35.3623,-80.7055,Hope Academy,private,school
The Talented Tenth Boys Academy,9200 University City Blvd,Charlotte,NC,28213,(980) 939-6272,35.3021,-80.7286,The Talented Tenth Boys Academy,private,school
Fairfield Christian School,2470 Princeton Rd,Hamilton,OH,45011,(513) 737-0841,39.3921,-84.5255,Fairfield Christian School,private,school
New Horizons Academy,220 Lawrence Ave,Wauseon,OH,43567,,41.5456,-84.1534,New Horizons Academy,private,school
Super Learning Center S Faith Christian Academy,1584 Wilson Ave,Lakemore,OH,44250,(330) 899-4119,41.0202,-81.4402,Super Learning Center S Faith Christian Academy,private,school
Villa,701 S Bethlehem Pike,Ambler,PA,19002,(215) 643-7676,40.154,-75.2102,Villa,private,school
Veritas Press Scholars Academy,1805 Olde Homestead Ln,Lancaster,PA,17601,(717) 519-1974,40.0502,-76.2507,Veritas Press Scholars Academy,private,school
School for Noah'S Ark,1508 Marchant Ave and 2 Other Address,Columbia,SC,29203,(803) 786-9483,34.1014,-80.943,School for Noah'S Ark,private,school
The Barclay School,4704 Colonial Dr,Columbia,SC,29203,(803) 629-6318,34.0439,-81.0294,The Barclay School,private,school
University School of the Lowcountry,690 Coleman Blvd,Mount Pleasant,SC,29464,(843) 884-0902,32.7924,-79.8706,University School of the Lowcountry,private,school
Ea Young Academy,8521 Davis Blvd,North Richland Hills,TX,76182,(817) 427-4888,32.9078,-97.1928,Ea Young Academy,private,school
Fischer Schule Haus Christian Academy,12400 Fm 32,Fischer,TX,78623,(830) 935-3630,29.9754,-98.2656,Fischer Schule Haus Christian Academy,private,school
Grace Covenant Academy-Frisco,10633 John W Elliott Dr,Frisco,TX,75033,(972) 836-9422,33.167,-96.8297,Grace Covenant Academy-Frisco,private,school
Midland Classical Academy,5711 Whitman Dr,Midland,TX,79705,(432) 694-0995,32.0511,-102.127,Midland Classical Academy,private,school
Mosaic Academy,1400 College Ave,Fort Worth,TX,76104,(817) 204-0300,32.7289,-97.3355,Mosaic Academy,private,school
Silver Saddle Christian Academy,17843 E Fm 1188,Bluff Dale,TX,76433,(254) 967-5108,32.3531,-98.0552,Silver Saddle Christian Academy,private,school
Springboard Academics,3901 Interstate 27,Lubbock,TX,79404,(806) 319-0862,33.5586,-101.844,Springboard Academics,private,school
University Park Academy,5830 Van Fleet St,Houston,TX,77033,(713) 641-0116,29.6733,-95.333,University Park Academy,private,school
Life Misssion Discovery School,Hc 63 Box26b,Monticello,UT,84535,(435) 587-9990,37.8696,-109.342,Life Misssion Discovery School,private,school
Church Hill Academy,2010 Carlisle Ave.,Richmond,VA,23231,(804) 222-8760,37.5185,-77.3913,Church Hill Academy,private,school
The Independent School of Winchester Inc,130 Carriebrooke Dr,Stephens City,VA,22655,(540) 877-5552,39.1156,-78.1934,The Independent School of Winchester Inc,private,school
St Luke'S Episcopal School,1400 S University Blvd,Mobile,AL,36609,(251) 666-2991,30.662,-88.1639,St Luke'S Episcopal School,private,school
Advance Christian Academy,14420 NW 7th Ave,Miami,FL,33168,(786) 360-4597,25.9069,-80.212,Advance Christian Academy,private,school
Christian Academy of Hope,907 SW 3rd St,Ocala,FL,34471,(352) 433-2217,29.1842,-82.1468,Christian Academy of Hope,private,school
Edith Robinson Christian Academy,PO Box 852,Fort Lauderdale,FL,33302,(754) 224-5840,26.1942,-80.2028,Edith Robinson Christian Academy,private,school
Summit Christian Academy,4209 Big Bethel Rd,Yorktown,VA,23693,(757) 867-7005,37.1211,-76.4347,Summit Christian Academy,private,school
Prism Education Center,2190 S Razorback Rd,Fayetteville,AR,72701,(479) 249-6113,36.0397,-94.1838,Prism Education Center,private,school
Community Christian School of Baraboo,E12654 County Rd T,Baraboo,WI,53913,(608) 448-2191,43.5219,-89.6927,Community Christian School of Baraboo,private,school
Berkshire Waldorf High School,14 Pine Street,Stockbridge,MA,1262,(413) 298-3800,42.2846,-73.3101,Berkshire Waldorf High School,private,school
Lakehill Preparatory School,2720 Hillside Dr,Dallas,TX,75214,(214) 826-2931,32.8229,-96.7492,Lakehill Preparatory School,private,school
Edith Robinson Christian Academy,1237 NE 4th Ave,Fort Lauderdale,FL,33304,(754) 224-5840,26.1418,-80.141,Edith Robinson Christian Academy,private,school
Adullam House Christian Academy,7469 Georgia Rd,Wetumpka,AL,36092,(334) 478-3888,32.6164,-86.1061,Adullam House Christian Academy,private,school
Sequel Tsi of Alabama- Llc,318 Hamer Rd,Owens Cross Roads,AL,35763,(256) 725-7170,34.5798,-86.4406,Sequel Tsi of Alabama- Llc,private,school
Stonecreek Montessori Academy,159 Business Center Dr,Birmingham,AL,35244,(205) 500-0412,33.3484,-86.7906,Stonecreek Montessori Academy,private,school
The Chanticleer Learning Center,1109 Spring Dr,Opelika,AL,36801,(334) 321-0234,32.6427,-85.4295,The Chanticleer Learning Center,private,school
The Pinnacle Schools - Elk River Treatment Program,29495 Copperhead Ln,Elkmont,AL,35620,(256) 732-4430,34.9871,-86.9509,The Pinnacle Schools - Elk River Treatment Program,private,school
Immaculate Conception School,615 Monroe St,Fairbanks,AK,99701,(907) 456-2044,64.8506,-147.717,Immaculate Conception School,private,school
Island Christian Academy,116 Tanner Crab Court,Craig,AK,99921,(907) 826-2526,55.4856,-133.126,Island Christian Academy,private,school
Aurora Day School,8155 W Thunderbird Rd,Peoria,AZ,85381,(623) 209-1000,33.6095,-112.235,Aurora Day School,private,school
Brightmont Academy - Chandler,5540 W Chandler Blvd Suite 1,Chandler,AZ,85226,(480) 526-7090,33.3055,-111.938,Brightmont Academy - Chandler,private,school
Gary K. Herberger Young Scholars Academy,4701 W Thunderbird Rd - Asu West Fab Nx,Glendale,AZ,85306,(602) 543-8274,33.6073,-112.16,Gary K. Herberger Young Scholars Academy,private,school
Intermountain Academy,1100 W Fresno Street,Tucson,AZ,85745,(520) 721-1887,32.225,-110.991,Intermountain Academy,private,school
The New Foundation-Marion Burton School,1200 N 77th St,Scottsdale,AZ,85257,(480) 945-3200,33.4616,-111.914,The New Foundation-Marion Burton School,private,school
The Sweetwater Unit Schooling,6 Dubois Dr.,Asheville,NC,28805,(828) 505-0334,32.2817,-111.052,The Sweetwater Unit Schooling,private,school
Yeshiva High School of Arizona,727 E Glendale Ave Ste 2b,Phoenix,AZ,85020,(602) 266-1213,33.5379,-112.064,Yeshiva High School of Arizona,private,school
Mount Pleasant Baptist Academy,559 Clay Rd,Searcy,AR,72143,(501) 728-4431,35.3938,-91.7837,Mount Pleasant Baptist Academy,private,school
Academia De Talar,31430 Calle De Talar,Bonsall,CA,92003,(760) 616-0827,33.2842,-117.167,Academia De Talar,private,school
Acts Advanced Christian Training Schools,PO Box 97,Paso Robles,CA,93447,(805) 239-0707,35.6504,-120.749,Acts Advanced Christian Training Schools,private,school
Agape School of Christian Education,109 W Fesler St,Santa Maria,CA,93458,(805) 614-9292,34.9568,-120.436,Agape School of Christian Education,private,school
Alexandria Academy- the,5776 D Lindero Canyon Rd#353,West Lake Village 91362,CA,91362,(818) 400-5020,34.1536,-118.795,Alexandria Academy- the,private,school
Alpha and Omega Academy,135 E Ivy St,Fallbrook,CA,92028,(760) 728-1717,33.3833,-117.251,Alpha and Omega Academy,private,school
Arcadia College Preparatory,145 E Duarte Rd Unit 801,Arcadia,CA,91006,(626) 576-8868,34.1306,-118.026,Arcadia College Preparatory,private,school
Balboa City School,525 Hawthorn St,San Diego,CA,92101,(619) 298-2990,32.7269,-117.16,Balboa City School,private,school
Beach High School,3635 Sevilla Dr,Soquel,CA,95073,(831) 462-5867,36.9946,-121.954,Beach High School,private,school
Beacon Hill Christian Academy,32439 State Highway 299 E,Montgomery Creek,CA,96065,(530) 524-3539,40.8647,-121.846,Beacon Hill Christian Academy,private,school
Big Bear Christian School,PO Box 3526,Big Bear City,CA,92314,(909) 894-8629,34.2428,-116.892,Big Bear Christian School,private,school
Bridgeport,13130 Burbank Blvd,Sherman Oaks,CA,91401,(818) 781-0360,34.1712,-118.419,Bridgeport,private,school
Bright Futures Academy- Victorville,12199 Industrial Blvd,Victorville,CA,92395,(760) 241-8386,34.4726,-117.282,Bright Futures Academy- Victorville,private,school
Interamerican Adult School,6627 Chalet,Bell Gardens,CA,90201,(323) 627-0704,33.9697,-118.138,Interamerican Adult School,private,school
Campbell Hall (episcopal),4533 Laurel Canyon Blvd,North Hollywood,CA,91607,(818) 505-5348,34.1533,-118.398,Campbell Hall (episcopal),private,school
Canyon Ridge Christian Prep,1200 Rainbow Valley Blvd,Fallbrook,CA,92028,(760) 723-7733,33.4056,-117.164,Canyon Ridge Christian Prep,private,school
California Crosspoint High School,1501 Harbor Bay Pkwy,Alameda,CA,94502,(510) 995-5333,37.726,-122.239,California Crosspoint High School,private,school
Compass High School,2040 Pioneer Ct,San Mateo,CA,94401,(650) 720-4248,37.5471,-122.312,Compass High School,private,school
Cornerstone Academy-Cambridge Campus,501 Cambridge St,San Francisco,CA,94134,(415) 585-5183,37.7247,-122.418,Cornerstone Academy-Cambridge Campus,private,school
Creekside Christian,620 Camino De Los Mares Suite E447,San Clemente,CA,92673,(949) 481-1989,33.4592,-117.653,Creekside Christian,private,school
Cristo Rey San Jose High School,1390 Five Wounds Ln,San Jose,CA,95116,(408) 293-0425,37.3508,-121.863,Cristo Rey San Jose High School,private,school
Dawn Christian Academy,525 42nd Ave,San Mateo,CA,94403,(650) 212-4222,37.5247,-122.303,Dawn Christian Academy,private,school
Dayspring Christian School,24252 Avenue 212,Lindsay,CA,93247,(559) 568-1216,36.1748,-119.03,Dayspring Christian School,private,school
Dikaios Christian Academy,2898 N G. St.,San Bernardino,CA,92405,(909) 881-8310,34.1442,-117.299,Dikaios Christian Academy,private,school
Dove'S Landing School,75580 Ramon Rd,Thousand Palms,CA,92276,(760) 250-7289,33.8173,-116.343,Dove'S Landing School,private,school
East Beverly High School,672 S Lafayette Park Pl Suite 15,Los Angeles,CA,90057,(213) 389-3319,34.0604,-118.284,East Beverly High School,private,school
Eastern Sierra Christian Academy,384 S Landing Rd,Crowley Lake,CA,93546,(760) 935-4272,37.5662,-118.742,Eastern Sierra Christian Academy,private,school
Excellence in Education Academy,2640 S Myrtle Ave,Monrovia,CA,91016,(626) 821-0025,34.1169,-118.001,Excellence in Education Academy,private,school
Grace Preparatory School,30750 Montgomery Ave,Nuevo,CA,92567,(951) 378-3590,33.8017,-117.126,Grace Preparatory School,private,school
Hills View Christian School,674 Harrison Rd,Salinas,CA,93907,(831) 442-3548,36.7604,-121.648,Hills View Christian School,private,school
Horizon Christian Academy,4520 Pocahontas Ave,San Diego,CA,92117,(858) 490-5000,32.8233,-117.21,Horizon Christian Academy,private,school
Legacy Christian Academy,5500 Olive Dr,Bakersfield,CA,93308,(661) 393-1783,35.4145,-119.064,Legacy Christian Academy,private,school
Mentoring Academy,5951 College Ave,Oakland,CA,94618,(510) 926-1133,37.848,-122.252,Mentoring Academy,private,school
Mvp Diamond Academy,2891 32nd Ave,Sacramento,CA,95824,(916) 421-1995,38.524,-121.475,Mvp Diamond Academy,private,school
New Life Christian Academy,816 N C St,Lompoc,CA,93436,(805) 736-9826,34.6509,-120.451,New Life Christian Academy,private,school
New Life Christian School,3523 Meeker Ave,El Monte,CA,91731,(626) 374-7716,34.0709,-118.029,New Life Christian School,private,school
Newport Academy Day School,1111 Bayside Drive-suite 250,Corona Del Mar,CA,92625,(415) 328-4473,33.6105,-117.889,Newport Academy Day School,private,school
Nigritian Academy,"1436 Cresmont Drive, #60223",Bakersfield,CA,93386,(661) 748-3278,35.3969,-118.941,Nigritian Academy,private,school
Notre Dame High School,7085 Brockton Ave,Riverside,CA,92506,(951) 275-5896,33.945,-117.397,Notre Dame High School,private,school
Pacific Independent Education,1663 Buckeye Dr,El Cajon,CA,92021,(619) 749-9384,32.8182,-116.948,Pacific Independent Education,private,school
Providence Christian Academy,2990 Ridgefield Dr,Chino Hills,CA,91709,(909) 590-4325,34.0054,-117.739,Providence Christian Academy,private,school
Revival Christian Academy,29220 Scott Rd,Menifee,CA,92584,(951) 246-5657,33.6425,-117.151,Revival Christian Academy,private,school
San Diego Liberal Arts Academy,Various Location Rented on Daily Basis for Classes,San Diego,CA,92127,(858) 775-4012,33.0021,-117.088,San Diego Liberal Arts Academy,private,school
Seine Academy,3140 Preach Ave 131,Colovis,CA,93612,(559) 453-0468,36.7952,-119.719,Seine Academy,private,school
Seneca Family of Agencie- Catalyst Academy,1060 Manor Rd,El Sobrante,CA,94803,(510) 300-6370,37.9837,-122.304,Seneca Family of Agencie- Catalyst Academy,private,school
St Abraham'S Classical Christian Academy,1940 Bonita Dr,Aptos,CA,95003,(831) 239-4657,36.9581,-121.864,St Abraham'S Classical Christian Academy,private,school
Starting Gate Educational Services,PO Box 52650,Riverside,CA,92517,(951) 788-7374,33.9779,-117.382,Starting Gate Educational Services,private,school
The American University for Science and Technology,18345 Ventura Blvd Suite 210,Tarzana,CA,91356,(818) 996-1863,34.168,-118.532,The American University for Science and Technology,private,school
Urban Skills Center,2255 Camino Del Rio S,San Diego,CA,92108,(619) 243-1325,32.7677,-117.141,Urban Skills Center,private,school
Valley Torah High School Girls' Division,12003 Riverside Dr Nth Hollywood,Valley Village,CA,91607,(818) 755-1697,34.1579,-118.395,Valley Torah High School Girls' Division,private,school
Ventura Christian Academy,1000 N Ventura Ave,Ventura,CA,93001,(805) 643-3387,34.2925,-119.297,Ventura Christian Academy,private,school
Veritas Classical Academy,1601 W Malvern Ave,Fullerton,CA,92833,(714) 783-6731,33.8766,-117.951,Veritas Classical Academy,private,school
Harkham-Gaon Acadamy,5870 W Olyompic Blvd,Los Angeles,CA,90036,(310) 556-0663,34.057,-118.359,Harkham-Gaon Acadamy,private,school
Zions Preparatory Academy / Nikola Tesla High Scho,640 Sunset St,San Andreas,CA,95249,(209) 781-5298,38.1926,-120.69,Zions Preparatory Academy / Nikola Tesla High Scho,private,school
Crossroads School,402 Kimbark St.,Longmont,CO,80501,(303) 709-9881,40.1661,-105.101,Crossroads School,private,school
Ellicott Baptist School,24075 State Highway 94,Calhan,CO,80808,(719) 683-2453,38.8382,-104.382,Ellicott Baptist School,private,school
Griffith Centers for Children,17 Farragut Ave,Colorado Springs,CO,80909,(719) 327-2008,38.8339,-104.797,Griffith Centers for Children,private,school
Lutheran High School,11249 Newlin Gulch Blvd.,Parker,CO,80134,(303) 841-5551,39.5131,-104.808,Lutheran High School,private,school
Rangely Christian Academy,1402 E Main St,Rangely,CO,81648,(970) 675-2032,40.0884,-108.779,Rangely Christian Academy,private,school
The Liberty School,215 E 12th St,Durango,CO,81301,(970) 385-4834,37.2763,-107.878,The Liberty School,private,school
The University School,2713 W Cucharras St,Colorado Springs,CO,80904,(719) 302-3751,38.8485,-104.867,The University School,private,school
Bais Yaakov of Waterbury High School,66 Buckingham St,Waterbury,CT,6710,(203) 805-8402,41.5629,-73.0411,Bais Yaakov of Waterbury High School,private,school
Benhaven Academy Site 2,50 N Plains Industrial Hwy,Wallingford,CT,6492,(203) 774-0008,41.4756,-72.8201,Benhaven Academy Site 2,private,school
Enfield Cdt,72 Shaker Rd Suite 7,Enfield,CT,6082,(860) 749-2243,42.0051,-72.5573,Enfield Cdt,private,school
Greenwich Academy,200 N Maple Ave,Greenwich,CT,6830,(203) 625-8915,41.0419,-73.6275,Greenwich Academy,private,school
Joshua Center Thames Valley,11a Stott Ave,Norwich,CT,6360,(860) 823-5320,41.5763,-72.1067,Joshua Center Thames Valley,private,school
Mercaz Community High School for Jewish Studies,2385 Park Ave,Bridgeport,CT,6604,(203) 450-5303,41.1905,-73.2143,Mercaz Community High School for Jewish Studies,private,school
Mesivta Ateres Shmuel of Waterbury,359 Cooke St,Waterbury,CT,6710,(203) 756-0500,41.5679,-73.0405,Mesivta Ateres Shmuel of Waterbury,private,school
Shoreline Cdt,5 Research Pkwy,Old Saybrook,CT,6475,(860) 510-0163,41.3015,-72.3843,Shoreline Cdt,private,school
The Greenwich Country Day School,401 Old Church Rd.,Greenwich,CT,6830,(203) 863-5600,41.0493,-73.6145,The Greenwich Country Day School,private,school
Windham Cdt,345 Jackson St,Willimantic,CT,6226,(860) 450-7373,41.7194,-72.2032,Windham Cdt,private,school
Aba Academy,4301 16th Street N,St. Petersburg,FL,33703,(727) 576-7600,27.8109,-82.6549,Aba Academy,private,school
Abis Place,1710 N University Dr,Coral Springs,FL,33071,(954) 753-4441,26.2523,-80.2533,Abis Place,private,school
American International School,1825 NW Corporate Blvd. Suite 110,"Boca Raton, Florida",FL,33431,(561) 939-1755,26.3715,-80.1217,American International School,private,school
Ark Christian Academy,307 Anastasia Blvd,St. Augustine,FL,32080,(904) 810-2005,29.8911,-81.2988,Ark Christian Academy,private,school
Atlantic Christian Academy of the Palm Beac,4900 Summit Blvd,West Palm Beach,FL,33415,(561) 686-8081,26.661,-80.1197,Atlantic Christian Academy of the Palm Beac,private,school
Bear Lake Christian School,1251 Bear Lake Rd,Apopka,FL,32703,(407) 270-6691,28.6608,-81.4436,Bear Lake Christian School,private,school
Bridge to Ability,32506 County Road 473,Leesburg,FL,34788,(352) 742-4420,28.8229,-81.773,Bridge to Ability,private,school
Bridge to Independence Inc.,1780 Mercy Dr,Orlando,FL,32808,(407) 293-4200,28.5668,-81.4309,Bridge to Independence Inc.,private,school
Heart Transformation,389 Sand Ridge Dr,Davenport,FL,33896,(407) 902-4000,28.2477,-81.604,Heart Transformation,private,school
Central Pointe Christian Academy,2031 Simpson Rd,Kissimmee,FL,34744,(407) 433-2276,28.3223,-81.3373,Central Pointe Christian Academy,private,school
Crossroads School,7170 Highway 17,Fleming Island,FL,32003,(904) 625-6141,30.0638,-81.7094,Crossroads School,private,school
Darby Christian Academy,14745 Bellamy Brothers Blvd,Dade City,FL,33525,(352) 588-2440,28.3724,-82.3586,Darby Christian Academy,private,school
Dunedin Academy,1408 County Road 1,Dunedin,FL,34698,(727) 580-2042,28.024,-82.7643,Dunedin Academy,private,school
Elev/8 Prep Academy,490 Dotterel Rd,Delray Beach,FL,33444,(561) 265-0280,26.4318,-80.076,Elev/8 Prep Academy,private,school
Elevation Preparatory Academy,582 McIntosh Rd,Sarasota,FL,34232,(941) 371-0462,27.3311,-82.4871,Elevation Preparatory Academy,private,school
Elite Academy School of Excellence,2950 NW 62 Street,Fort Lauderdale,FL,33309,(754) 205-2183,26.2024,-80.1854,Elite Academy School of Excellence,private,school
Englewood Christian School,404 W Green St,Englewood,FL,34223,(941) 475-1034,26.9615,-82.3617,Englewood Christian School,private,school
Es International School,4995 Airport Pulling Rd N,Naples,FL,34105,(239) 330-7339,26.2041,-81.772,Es International School,private,school
Esther'S School New Port Richey,5418 Madison St,New Port Richey,FL,34652,(727) 845-3169,28.2379,-82.7152,Esther'S School New Port Richey,private,school
Etta Mae Anderson Private School,17901 NW 37th Ave,Miami Gardens,FL,33056,(305) 625-7006,25.9372,-80.2607,Etta Mae Anderson Private School,private,school
Excel High School,3350 Annapolis Ln N Ste B,Minneapolis,MN,55447,(952) 465-3700,45.0167,-93.4582,Excel High School,private,school
Franklin Academy Inc.,615 Tuskegee Street,Tallahassee,FL,32305,(850) 322-2860,30.4116,-84.2937,Franklin Academy Inc.,private,school
Freedom School,10413 Us Highway 129,Live Oak,FL,32060,(386) 362-5239,30.2607,-82.9888,Freedom School,private,school
Generation Harvest Inc.,1680 Fruitville Rd. Ste. 300-campus,Sarasota,FL,34236,(941) 961-4114,27.3385,-82.5365,Generation Harvest Inc.,private,school
Genesis Christian Academy,4526 N Access Rd,Englewood,FL,34324,(941) 276-2850,26.9331,-82.2602,Genesis Christian Academy,private,school
Gulf Coast School for Autism,"2404 Ruth Hentz Avenue, Bldg. C",Panama City,FL,32405,(850) 257-5998,30.1916,-85.6963,Gulf Coast School for Autism,private,school
Ibck Educational Center,2275 Fortune Rd,Kissimmee,FL,34744,(407) 483-8951,28.3053,-81.3512,Ibck Educational Center,private,school
Inspiration Academy,7900 40th Ave W,Bradenton,FL,34209,(941) 795-5466,27.4674,-82.6419,Inspiration Academy,private,school
Integrity Christian Academy,7432 State Road 50,Groveland,FL,34736,(352) 429-4402,28.557,-81.8315,Integrity Christian Academy,private,school
Keystone Prep High School,18105 Gunn Hwy,Tampaodessa,FL,33556,(813) 264-4500,28.1381,-82.5731,Keystone Prep High School,private,school
King Queen Christian School for All Stude,3900 5th Ave N.,St. Petersburg,FL,33713,(727) 623-0982,27.7768,-82.6864,King Queen Christian School for All Stude,private,school
L.I.f.t Academy,13400 Park Blvd,Seminole,FL,33776,(727) 434-8322,27.8436,-82.8241,L.I.f.t Academy,private,school
Lakeland Crossroads School,615 Old Polk City Rd,Lakeland,FL,33809,(863) 859-0848,28.1316,-81.9373,Lakeland Crossroads School,private,school
Lifeway Baptist Academy,3202 Atlantic Blvd,Jacksonville,FL,32207,(904) 534-3236,30.3052,-81.6324,Lifeway Baptist Academy,private,school
Little Flowers of Hope Center for Children,5850 S. Pine Island Rd,Davie,FL,33328,(305) 298-9787,26.0471,-80.2586,Little Flowers of Hope Center for Children,private,school
Love to Learn Inc,712 N Scenic Hwy,Lake Wales,FL,33853,(863) 676-2351,27.9109,-81.5874,Love to Learn Inc,private,school
Mesivta of Coral Springs,1730 N University Dr,Coral Springs,FL,33071,(954) 464-0416,26.2525,-80.2538,Mesivta of Coral Springs,private,school
New Pact Christian Academy,2558 Us Hwy 17/92 N. Ste. E.,Haines City,FL,33844,(863) 353-2611,28.1307,-81.6146,New Pact Christian Academy,private,school
Nicaea Academy of Cape Coral,3221 Chiquita Blvd S,Cape Coral,FL,33914,(239) 540-9400,26.5909,-82.0064,Nicaea Academy of Cape Coral,private,school
Our Lady of Lourdes Academy,5525 SW 84th St,Miami,FL,33143,(305) 667-1623,25.6938,-80.2832,Our Lady of Lourdes Academy,private,school
Oxbridge Academy of the Palm Beaches,3151 N Military Trl,West Palm Beach,FL,33409,(561) 972-9600,26.7236,-80.112,Oxbridge Academy of the Palm Beaches,private,school
Pal Academy,2685 Executive Park Dr Ste 5,Weston,FL,33331,(954) 372-9710,26.086,-80.3732,Pal Academy,private,school
Piney Grove Boys Academy,4699 W Oakland Park Blvd,Lauderdale Lakes,FL,33313,(954) 735-1470,26.1662,-80.2117,Piney Grove Boys Academy,private,school
Putnam Banner Private School System- Inc,200 N. Main Street,Palatka,FL,32177,(386) 972-5605,29.6486,-81.6295,Putnam Banner Private School System- Inc,private,school
Rose Academy Llc,1268b Timberlane Rd,Tallahassee,FL,32312,(850) 893-8743,30.5037,-84.2592,Rose Academy Llc,private,school
Saddlebrook Preparatory School,5700 Saddlebrook Way,Wesley Chapel,FL,33543,(813) 907-4300,28.2387,-82.3335,Saddlebrook Preparatory School,private,school
Seven Bridges School,402 Loring Ave,Orange Park,FL,32073,(904) 269-7377,30.1802,-81.7043,Seven Bridges School,private,school
Socrates Preparatory School,3955 Red Bug Lake Rd,Casselberry,FL,32707,(321) 422-0825,28.6469,-81.2815,Socrates Preparatory School,private,school
Southeastern High School,15327 NW 60th Ave Ste 235,Miami Lakes,FL,33014,(877) 698-3540,25.9121,-80.2985,Southeastern High School,private,school
Sterling Academy,4801 S University Dr Suite 215,Davie,FL,33328,(866) 502-1050,26.0612,-80.2533,Sterling Academy,private,school
Dba a Blessed Academy,3362 W Southport Rd,Kissimmee,FL,34746,(407) 572-8786,28.1528,-81.438,Dba a Blessed Academy,private,school
The Ampersand School,893 E State Road 434,Longwood,FL,32750,(407) 960-7994,28.6979,-81.3302,The Ampersand School,private,school
The G.I.f.t.ed Learning Center Inc.,1624 Smith St,Orange Park,FL,32073,(904) 460-4623,30.17,-81.7035,The G.I.f.t.ed Learning Center Inc.,private,school
The Gap School,133 McIntosh Rd,Sarasota,FL,34232,(941) 552-9090,27.3348,-82.4806,The Gap School,private,school
The King'S Academy - Clewiston,601 Caribbean Ave,Clewiston,FL,33440,(863) 301-0626,26.759,-80.942,The King'S Academy - Clewiston,private,school
The Seal Academy,1420 NW 2nd Ave Suite 10,Boca Raton,FL,33432,(561) 706-1004,26.3633,-80.0901,The Seal Academy,private,school
Trinity Christian Private School,2939 SW 3rd Terrace,Okeechobee,FL,34974,(863) 824-0208,27.2169,-80.8326,Trinity Christian Private School,private,school
Vip Christian Academy,17445 Homestead Ave,Miami,FL,33157,(305) 251-3722,25.6063,-80.3529,Vip Christian Academy,private,school
Wellington Institute of Learning Developm,12785 Forest Hill Blvd Ste D,Wellington,FL,33414,(561) 444-3590,26.6719,-80.2491,Wellington Institute of Learning Developm,private,school
West Gate Christian School,5121 Kelly Rd,Tampa,FL,33615,(813) 884-5147,27.9943,-82.5638,West Gate Christian School,private,school
Advance Academy at Matthew Reardon Center for Auti,6602 Abercorn Street Ste 200,Savannah,GA,31405,(912) 355-9098,32.0175,-81.1104,Advance Academy at Matthew Reardon Center for Auti,private,school
Al-Furquan Academy,6011 Western Hills Dr,Norcross,GA,30071,(678) 368-3939,33.9236,-84.2102,Al-Furquan Academy,private,school
Bradfield Center Ault Academy,1022 E Depot St,Lagrange,GA,30241,(706) 884-1717,33.0358,-85.0181,Bradfield Center Ault Academy,private,school
Champions Academy,5014 Stone Mountain Hwy Ste F,Lilburn,GA,30047,(678) 368-0063,33.8318,-84.0891,Champions Academy,private,school
Cornerstone Christian Academy,167 Dawkins Rd,Royston,GA,30662,(706) 245-0808,34.2885,-83.1292,Cornerstone Christian Academy,private,school
Covenant Christian School,170 N Fairgound St NE,Marietta,GA,30061,(770) 616-5928,33.9555,-84.5346,Covenant Christian School,private,school
Cristo Rey Atlanta Jesuit High School,680 W Peachtree St NW,Atlanta,GA,30308,(404) 637-2800,33.7732,-84.3878,Cristo Rey Atlanta Jesuit High School,private,school
"Faith Christian Academy of Griffin, Inc.",501 W Broad St,Griffin,GA,30223,(770) 227-7383,33.2508,-84.2709,"Faith Christian Academy of Griffin, Inc.",private,school
Fannin Christian Learning Center,2324 E First St,Blue Ridge,GA,30513,(706) 258-3940,34.8532,-84.3309,Fannin Christian Learning Center,private,school
Grace Academy of Griffin,410 Taylor St,Griffin,GA,30224,(770) 467-8220,33.2465,-84.2585,Grace Academy of Griffin,private,school
Hallie Turner Private,2917 University Ave,Columbus,GA,31907,(706) 561-3518,32.4923,-84.9335,Hallie Turner Private,private,school
Horizon Christian Academy,1270 Sawnee Dr,Cumming,GA,30040,(678) 947-0711,34.2263,-84.1396,Horizon Christian Academy,private,school
Johnson Ferry Christian Academy,955 Johnson Ferry Rd,Marietta,GA,30068,(678) 784-5231,33.9717,-84.4136,Johnson Ferry Christian Academy,private,school
Kidspeace,101 Kidspeace Dr,Bowdon,GA,30108,(770) 437-7200,33.5579,-85.2366,Kidspeace,private,school
Kingdom Christian Academy & Preparatory School,3001 Airport Thruway,Columbus,GA,31909,(706) 507-1733,32.5225,-84.9452,Kingdom Christian Academy & Preparatory School,private,school
Lasseter Academy,2901 University Ave Suite 12,Columbus,GA,31907,(706) 562-0023,32.4907,-84.9326,Lasseter Academy,private,school
Life Song Montessori,324 W Cherokee Ave,Cartersville,GA,30120,(770) 382-0109,34.1653,-84.8053,Life Song Montessori,private,school
Rivers Academy,38 N Main St,Alpharetta,GA,30009,(770) 475-0081,34.0766,-84.295,Rivers Academy,private,school
Safe Harbor Baptist Academy,2043 N Highway 113,Temple,GA,30179,(770) 562-8281,33.7831,-85.0628,Safe Harbor Baptist Academy,private,school
Savannah Christian Preparatory School,1599 Chatham Pkwy,Savannah,GA,31408,(912) 234-1653,32.0743,-81.1663,Savannah Christian Preparatory School,private,school
Second Nature Blue Ridge Wilderness Program,236 File St,Clayton,GA,30525,(706) 212-2037,34.9049,-83.3889,Second Nature Blue Ridge Wilderness Program,private,school
Service Christian School,5015 Highway 19 S.,Zebulon,GA,30295,(770) 584-8810,33.0551,-84.3458,Service Christian School,private,school
Sophia Academy (1),2880 Dresden Dr.,Atlanta,GA,30341,(404) 303-8722,33.8771,-84.2783,Sophia Academy (1),private,school
Sterling Christian Academy,109 Charlotte Court,Macon,GA,31220,(478) 832-9146,32.8621,-83.7848,Sterling Christian Academy,private,school
The Bridge Academy,3707 Main Street,College Park,GA,30337,(770) 961-5421,33.654,-84.4499,The Bridge Academy,private,school
The King'S Academy,471 Arnold Mill Rd,Woodstock,GA,30188,(770) 592-5464,34.1197,-84.4765,The King'S Academy,private,school
Tnt Academy,5510 Lilburn Stone Mountain Rd,Stone Mountain,GA,30087,(770) 921-3690,33.8548,-84.1437,Tnt Academy,private,school
Torch and Sword Christian Academy,100 Pinnacle Way Ste 190,Norcross,GA,30071,(678) 691-3164,33.9291,-84.1833,Torch and Sword Christian Academy,private,school
Williamson Learning Center,PO Box 224,Williamson,GA,30292,(770) 229-9800,33.1695,-84.4047,Williamson Learning Center,private,school
Makua Lani Christian Academy,74-4966 Keala Kaa Street,Kailua Kona,HI,96745,(808) 329-4898,19.676,-155.986,Makua Lani Christian Academy,private,school
Pu'Ukumu School,4551 Kapuna Rd,Kilauea,HI,96754,(808) 320-3746,22.1884,-159.362,Pu'Ukumu School,private,school
Christian Center School,3639 W Prairie Ave,Hayden,ID,83835,(208) 772-7541,47.7463,-116.835,Christian Center School,private,school
Elk Mountain Academy,3067 Mosquito Creek Rd,Clark Fork,ID,83811,(208) 266-1122,48.1726,-116.127,Elk Mountain Academy,private,school
Genesis Preparatory Academy,1866 N Cecil Rd,Post Falls,ID,83854,(208) 691-0712,47.7258,-116.902,Genesis Preparatory Academy,private,school
Hall International Academy for Arts and Humanities,1167 E Iron Eagle Dr,Eagle,ID,83616,(208) 957-7024,43.6895,-116.34,Hall International Academy for Arts and Humanities,private,school
Watersprings School,4250 S 25th E,Idaho Falls,ID,83404,(208) 542-6250,43.4592,-111.985,Watersprings School,private,school
Beacon Academy,622 Davis St Fl 1,Evanston,IL,60201,(224) 999-1177,42.0463,-87.681,Beacon Academy,private,school
Jtc Boys Academy,353 N 88th St Hwy 157,Centreville,IL,62203,(618) 398-2524,38.5842,-90.0687,Jtc Boys Academy,private,school
Fields Lab Academy,721 E Piper St,Macomb,IL,61455,(773) 485-8685,40.4547,-90.6626,Fields Lab Academy,private,school
Grace Christian Online Academy,747 18th Ave,East Moline,IL,61244,(309) 738-0265,41.5135,-90.4428,Grace Christian Online Academy,private,school
Jtc Academy,4850 Market St,Centreville,IL,62207,(618) 332-3630,38.5807,-90.1203,Jtc Academy,private,school
Lawrence Hall Therapeutic Day School,4833 N Francisco Ave,Chicago,IL,60625,(773) 769-3511,41.9695,-87.7001,Lawrence Hall Therapeutic Day School,private,school
New Vision Christian Academy,512 Spring St,Alton,IL,62002,(618) 979-9357,38.892,-90.1725,New Vision Christian Academy,private,school
One World School- Llc,747 18th Ave,East Moline,IL,61244,(309) 738-0265,41.5135,-90.4428,One World School- Llc,private,school
Yeshiva Netzach Eliyahu,3050 W Touhy Ave,Chicago,IL,60645,(773) 649-5353,42.0122,-87.7065,Yeshiva Netzach Eliyahu,private,school
Fishers Christian Academy,9587 E 131st St,Fishers,IN,46038,(317) 577-1777,39.9786,-85.9993,Fishers Christian Academy,private,school
Turning Point Education Centers,4516 W St. Rd 54,Bloomfield,IN,47424,(812) 659-2533,39.0351,-87.0257,Turning Point Education Centers,private,school
Horizon Christian School,7702 Indian Lake Rd,Indianapolis,IN,46236,(317) 823-4538,39.8956,-85.9868,Horizon Christian School,private,school
Iowa Christian Academy,2501 Vine St,West Des Moines,IA,50265,(515) 221-3999,41.58,-93.739,Iowa Christian Academy,private,school
Trinity Christian High School,1811 Hayes Ave,Hull,IA,51239,(712) 439-1921,43.1963,-96.1476,Trinity Christian High School,private,school
Guardian Angel School,75 Orphanage Road,Fort Mitchell,KY,41017,(859) 331-2040,39.0301,-84.5553,Guardian Angel School,private,school
Immaculata Classical Academy,3044 Hikes Ln,Louisville,KY,40220,(502) 365-3545,38.2126,-85.6384,Immaculata Classical Academy,private,school
Kore Academy,4300 Nicholasville Rd,Lexington,KY,40515,(859) 971-7129,37.9731,-84.5292,Kore Academy,private,school
The Christian Academy of Actschools,144 North Main Street,Greenville,KY,42345,(270) 338-1630,37.203,-87.1778,The Christian Academy of Actschools,private,school
Angles Academy,3954 Florida Blvd,Baton Rouge,LA,70806,(225) 924-9770,30.4502,-91.1497,Angles Academy,private,school
Apostolic Christian Academy,1214 Larurent Street,Oplous,LA,70570,(337) 305-4893,30.5271,-92.0711,Apostolic Christian Academy,private,school
Kim Fluker Information Technology School,620 Oak Harbor #201b,Slidell,LA,70458,(504) 914-5038,30.226,-89.7865,Kim Fluker Information Technology School,private,school
Odyssey House Academy,4730 Washington Ave,New Orleans,LA,70125,(504) 324-8288,29.9597,-90.1054,Odyssey House Academy,private,school
Raphael Academy,500 Soraparu St.,New Orleans,LA,70130,(504) 524-5955,29.9235,-90.0747,Raphael Academy,private,school
Runnels School,17255 S Harrells Ferry Rd,Baton Rouge,LA,70816,(225) 751-5712,30.4274,-90.9939,Runnels School,private,school
St Katharine Drexel Preparotory School,5116 Magazine St,New Orleans,LA,70115,(504) 899-6061,29.9202,-90.1102,St Katharine Drexel Preparotory School,private,school
University Academy of Cenla,141 Middleton Dr.,Alexandria,LA,71302,(318) 427-0123,31.1779,-92.4162,University Academy of Cenla,private,school
Upper Lafayette Academy,498 Acorn Dr,Lafayette,LA,70507,(337) 534-7761,30.2826,-91.9933,Upper Lafayette Academy,private,school
Kidspeace National Centers of New England,16 Kidspace Way,Ellsworth,ME,4605,(207) 664-1275,44.5904,-68.4339,Kidspeace National Centers of New England,private,school
Wayfinder School at Opportunity Farm,215 Gloucester Hill Rd.,New Gloucester,ME,4260,(207) 236-3000,43.9557,-70.2969,Wayfinder School at Opportunity Farm,private,school
Baltimore Youth Initiative High School,4701 Yellowwood Ave,Baltimore,MD,21209,(443) 990-1294,39.3465,-76.6565,Baltimore Youth Initiative High School,private,school
Children'S Home Diagnostic Center School,205 Bloomsbury Ave,Catonsville,MD,21228,(410) 744-1083,39.2674,-76.7274,Children'S Home Diagnostic Center School,private,school
Conocoheague Mennonite School,12403 Huyett Ln,Hagerstown,MD,21740,(717) 360-5483,39.6554,-77.7983,Conocoheague Mennonite School,private,school
Cornerstone Academy,17455 Old Frederick Rd.,Mount Airy,MD,21771,(301) 829-4730,39.3547,-77.1231,Cornerstone Academy,private,school
Kings Landing Academy,2490 Kings Landing Rd,Huntingtown,MD,20639,(410) 474-7660,38.6249,-76.6566,Kings Landing Academy,private,school
Maven Academy the,1908 Forest Dr Suite 2j,Annapolis,MD,21401,(410) 216-7070,38.9745,-76.5263,Maven Academy the,private,school
Mountain Top Sda School,PO Box 628,Mc Henry,MD,21541,(301) 387-9532,39.4663,-79.366,Mountain Top Sda School,private,school
The Community School,2939 Huntingdon Avenue,Baltimore,MD,21211,(410) 467-4920,39.3225,-76.6238,The Community School,private,school
Village Academy of Maryland,8601 Ashwood Dr,Capitol Heights,MD,20743,,38.8818,-76.8571,Village Academy of Maryland,private,school
Sterling Education-New England-Boston,315 University Ave,Westwood,MA,2090,(781) 251-0590,42.2008,-71.1551,Sterling Education-New England-Boston,private,school
Commonwealth Academy,1 Ames Hill Dr,Springfield,MA,1105,(413) 285-8976,42.0985,-72.5757,Commonwealth Academy,private,school
Futures School,55 Tozer Rd,Beverly,MA,1915,(978) 993-8096,42.5685,-70.8815,Futures School,private,school
Integrated Learning Academy Newton School,109 Oak St Suite G-10,Newton,MA,2464,(617) 467-5849,42.3088,-71.2204,Integrated Learning Academy Newton School,private,school
Brightmont Academy - Northville,15374 N Haggerty Rd,Plymouth,MI,48170,(734) 548-8740,42.3966,-83.4383,Brightmont Academy - Northville,private,school
Christian Fellowship Center,950 N Michigan Rd,Eaton Rapids,MI,48827,(517) 282-4280,42.5815,-84.6216,Christian Fellowship Center,private,school
Detroit Christian Schools of Excellence,19370 Greenfield,Detroit,MI,48235,(313) 281-8144,42.4335,-83.1999,Detroit Christian Schools of Excellence,private,school
Greater Lansing Adventist School,5330 W St Joe Hwy,Lansing,MI,48917,(517) 321-5565,42.7266,-84.6245,Greater Lansing Adventist School,private,school
International Islamic Academy,14350 Tireman St,Detroit,MI,48228,(313) 584-6448,42.3517,-83.184,International Islamic Academy,private,school
Lake Michigan Catholic School,915 Pleasant St.,St. Joseph,MI,49085,(269) 983-5529,42.1079,-86.4781,Lake Michigan Catholic School,private,school
Learning Disabilities Clinic- Inc.,25611 Coolidge Hwy,Oak Park,MI,48237,(248) 545-6677,42.4798,-83.1829,Learning Disabilities Clinic- Inc.,private,school
Potters House High School,2500 Newport St SW,Wyoming,MI,49519,(616) 249-8050,42.9154,-85.7267,Potters House High School,private,school
Shalom Baptist Church School,3400 Morgan Rd,Lake Orion,MI,48359,(248) 391-0443,42.712,-83.309,Shalom Baptist Church School,private,school
Shrine Academy,3500 W 13 Mile Rd,Royal Oak,MI,48073,(248) 549-2925,42.5187,-83.1908,Shrine Academy,private,school
Valley School,5255 Linden Rd,Swartz Creek,MI,48473,(810) 767-4004,42.9517,-83.7689,Valley School,private,school
Apostolic Christian Academy,6944 Hudson Blvd,Oakdale,MN,55128,(651) 739-7686,44.9506,-92.9663,Apostolic Christian Academy,private,school
Big Stone Colony School,75217 Big Stone Colony Rd,Graceville,MN,56240,(320) 748-7250,45.528,-96.4755,Big Stone Colony School,private,school
Glory Academy,25170 Dodd Blvd,Lakeville,MN,55044,(952) 985-3659,44.5843,-93.2706,Glory Academy,private,school
Holy Spirit Academy,1001 E 7th St Suite 1,Monticello,MN,55362,(763) 220-2402,45.2961,-93.7835,Holy Spirit Academy,private,school
Oakland Baptist School,22035 890th Ave,Oakland,MN,56007,(507) 355-2093,43.6743,-93.0894,Oakland Baptist School,private,school
Sterling Central,320 Center St,Vesta,MN,86292,(999) 999-9999,44.5077,-95.4142,Sterling Central,private,school
Academy at St. Sabina,1625 Swallow Ln,Florissant,MO,63031,(314) 837-6524,38.815,-90.3443,Academy at St. Sabina,private,school
Artstech,1522 Holmes St,Kansas City,MO,64108,(816) 461-0201,39.0948,-94.5756,Artstech,private,school
Change Academy at Lake of the Ozarks,130 Calo Ln,Lake Ozark,MO,65049,(573) 365-2221,38.2031,-92.6825,Change Academy at Lake of the Ozarks,private,school
Living Word Christian School,1145 Tom Ginnever Ave,O'fallon,MO,63366,(636) 978-1680,38.8226,-90.6732,Living Word Christian School,private,school
Lakeland Regional School,440 S. Market Ave.,Springfield,MO,65810,(417) 520-1330,37.2065,-93.2955,Lakeland Regional School,private,school
Libby Lane Academy,601 NW Libby Ln,Lees Summit,MO,64063,(816) 399-2026,38.9236,-94.3994,Libby Lane Academy,private,school
Lutheran Assn for Spec Ed,3558 S Jefferson Ave,St. Louis,MO,63118,(314) 268-1234,38.5898,-90.2255,Lutheran Assn for Spec Ed,private,school
Ozanam School,421 E 137th St,Kansas City,MO,64145,(816) 508-3600,38.8767,-94.5902,Ozanam School,private,school
Wings of Faith Academy,10866 E Highway 32,Stockton,MO,65785,(417) 276-8761,37.726,-93.8764,Wings of Faith Academy,private,school
Yeshivat Kadimah High School,1142 N Warson Rd,St. Louis,MO,63132,(314) 942-3166,38.6799,-90.3946,Yeshivat Kadimah High School,private,school
Summit Academy,No. 1 West End Rd,Livingston,MT,59047,(406) 823-9155,45.6543,-110.61,Summit Academy,private,school
Wood Creek Academy- Llc,76 Tanager Lane,Thompson Falls,MT,59873,(406) 827-8272,47.5473,-115.25,Wood Creek Academy- Llc,private,school
Free World U,311 W Third St Suite 2822,Carson City,NV,89703,(702) 425-4398,39.1623,-119.769,Free World U,private,school
Lighthouse Baptist Academy,5350 Pembroke Dr,Reno,NV,89502,(775) 356-7535,39.4957,-119.741,Lighthouse Baptist Academy,private,school
El Shaddai Christian Academy,68 Stiles Rd Unit H,Salem,NH,3079,(603) 912-5972,42.7703,-71.2499,El Shaddai Christian Academy,private,school
Enriched Learning Center,26 Exchange Street,Berlin,NH,3570,(603) 215-6372,44.4679,-71.1848,Enriched Learning Center,private,school
Parker Academy,2 Fisk Rd,Concord,NH,3301,(603) 410-6240,43.1973,-71.5739,Parker Academy,private,school
Academy of Saint Elizabeth,2 Convent Rd,Convent Station,NJ,7961,(973) 290-5200,40.7797,-74.4396,Academy of Saint Elizabeth,private,school
Academy of Saut Ul Furqau,250 Hargreaves Ave,Teauech,NJ,7666,(201) 523-0616,40.9025,-73.9902,Academy of Saut Ul Furqau,private,school
Bais Leah High School,152 Lanes Mill Rd,Howell,NJ,7731,(732) 886-5324,40.1287,-74.2143,Bais Leah High School,private,school
Fusion Academy,182 South St Suite 4,Morristown,NJ,7960,(973) 267-0474,40.7918,-74.4757,Fusion Academy,private,school
Golda Och Academy,1418 Pleasant Valley Way,West Orange,NJ,7052,(973) 602-3600,40.7744,-74.279,Golda Och Academy,private,school
Heichal Hatorah,70 Sterling Pl,Teaneck,NJ,7666,(201) 335-0633,40.8854,-74.009,Heichal Hatorah,private,school
Mesivta of North Jersey,181 Lafayette Avenue,Passaic,NJ,7055,(973) 916-1900,40.8547,-74.1281,Mesivta of North Jersey,private,school
Princeton Intl School of Mathematics and Science,19 Lambert Dr,Princeton,NJ,8540,(609) 454-5582,40.3412,-74.6942,Princeton Intl School of Mathematics and Science,private,school
Sinai Girls' High School,1650 Palisade Ave,Teaneck,NJ,7666,(201) 833-4307,40.9075,-74.0013,Sinai Girls' High School,private,school
Sinai School at Rynj,666 Kinderkamack Rd,River Edge,NJ,7661,(201) 833-1134,40.9304,-74.0327,Sinai School at Rynj,private,school
St John of God Community Services/Archbishop Dam,1145 Delsea Dr,Westville,NJ,8093,(856) 848-4700,39.8491,-75.1214,St John of God Community Services/Archbishop Dam,private,school
The Hanal High School,260 Harrison St,Leonia,NJ,7605,(201) 242-0377,40.8664,-73.9856,The Hanal High School,private,school
Adventist Academy of Santa Fe,702 Bishops Lodge Rd,Santa Fe,NM,87501,(505) 954-1845,35.696,-105.932,Adventist Academy of Santa Fe,private,school
St Pius X High School,5301 Saint Josephs Dr NW,Albuquerque,NM,87120,(505) 831-8400,35.1299,-106.698,St Pius X High School,private,school
Aichhorn School (the),23 W 106th St,New York,NY,10025,(212) 316-9353,40.7988,-73.9611,Aichhorn School (the),private,school
Bais Yaakov High School of South Fallsburg,243 Brickman Rd.,Fallsburg,NY,12733,(845) 468-1111,41.7363,-74.6243,Bais Yaakov High School of South Fallsburg,private,school
Congregation Machna Shalva (girls Dept.),1462 62nd St & 1363 50th St.,Brooklyn,NY,11219,(718) 438-0060,40.625,-73.996,Congregation Machna Shalva (girls Dept.),private,school
Calvary Christian School,41 Rr 209n,Port Jervis,NY,12771,(845) 856-1620,41.3761,-74.6856,Calvary Christian School,private,school
Cong Khal Yereim Yesh Bais Hillel,52 Carlton Rd,Monsey,NY,10952,(845) 573-5434,41.1242,-74.079,Cong Khal Yereim Yesh Bais Hillel,private,school
Bnos Esther Pupa,246 North Main Street,Spring Valley,NY,10977,(845) 371-1200,41.1242,-74.0398,Bnos Esther Pupa,private,school
Creative Minds Montessori School,169 Genesee St,Auburn,NY,13021,(315) 406-9495,42.9299,-76.5703,Creative Minds Montessori School,private,school
Daytop Prep School,620 Route 303,Blauvelt,NY,10913,(845) 353-2730,41.0812,-73.9494,Daytop Prep School,private,school
Eisek Hatorah D'Rachmistrivka,8101 Avenue K,Brooklyn,NY,11236,(718) 438-5040,40.633,-73.9089,Eisek Hatorah D'Rachmistrivka,private,school
Gustavus Adolphus Child & Family,200 Gustavus Ave,Jamestown,NY,14701,(716) 665-2772,42.1168,-79.2106,Gustavus Adolphus Child & Family,private,school
Hebrew Academy-Lower School,33 Washington Ave,Lawrence,NY,11559,(516) 569-3370,40.6187,-73.7268,Hebrew Academy-Lower School,private,school
Manhattan Children'S Center (the),111 West 92,New York New York,NY,10025,(212) 749-4604,40.7905,-73.9698,Manhattan Children'S Center (the),private,school
Mesilas Bais Yaakov,420 19th St,Brooklyn,NY,11215,(718) 499-4747,40.6584,-73.9855,Mesilas Bais Yaakov,private,school
Mesivta Ahavas Hatorah,720 Union Rd,Spring Valley,NY,10977,(845) 426-7400,41.1423,-74.0546,Mesivta Ahavas Hatorah,private,school
Mesivta Nesivos Hatalmud,1228 36th St,Brooklyn,NY,11218,(718) 972-5858,40.6432,-73.9861,Mesivta Nesivos Hatalmud,private,school
Mesivta of Yeshiva D'Monsey,2 Roman Blvd,Monsey,NY,10952,(845) 352-0999,41.1157,-74.0661,Mesivta of Yeshiva D'Monsey,private,school
Mesivta Yam Hatorah,2716 Healy Ave,Far Rockaway,NY,11691,(718) 471-7471,40.6046,-73.7658,Mesivta Yam Hatorah,private,school
New York School for the Deaf,555 Knollwood Rd,White Plains,NY,10603,(914) 949-7310,41.0539,-73.7986,New York School for the Deaf,private,school
Ohel Chaya,16 Sumner Pl,Brooklyn,NY,11206,(718) 452-1300,40.7006,-73.9405,Ohel Chaya,private,school
Quad Preparatory School (the),325 E 6th St,New York,NY,10003,(646) 649-3913,40.7272,-73.9879,Quad Preparatory School (the),private,school
Sunshine Alternative Education Center,468 Boyle Rd,Port Jefferson Station,NY,11776,(631) 476-3099,40.8959,-73.0539,Sunshine Alternative Education Center,private,school
Talmud Torah Me'Or Hachaim Viznitz,15 Elyon Rd,Monsey,NY,10952,(845) 731-3700,41.1148,-74.0702,Talmud Torah Me'Or Hachaim Viznitz,private,school
The Birch Wathen Lenox School,210 E 77th St,New York,NY,10075,(212) 861-0404,40.7725,-73.9577,The Birch Wathen Lenox School,private,school
Torah High School Long Beach,205 West Beech St.,Long Beach,NY,11561,(516) 255-4700,40.5866,-73.6704,Torah High School Long Beach,private,school
Upward Look Christian Academy,3670 Rte 206,Greene,NY,13778,(607) 422-8504,42.3392,-75.883,Upward Look Christian Academy,private,school
Woodward Mental Health Center,201 W Merrick Rd,Freeport,NY,11520,(516) 379-0900,40.6521,-73.5886,Woodward Mental Health Center,private,school
Yeshiva Derech Chaim,1573 39th St,Brooklyn,NY,11218,(718) 438-5476,40.6369,-73.9798,Yeshiva Derech Chaim,private,school
Yeshiva Ohr Moleh Koson,1383 44th St,Brooklyn,NY,11219,(718) 972-4078,40.6368,-73.9874,Yeshiva Ohr Moleh Koson,private,school
Yeshiva Ohr Torah,360 Route 306,Monsey,NY,10952,(845) 352-0407,41.1461,-74.0689,Yeshiva Ohr Torah,private,school
Yeshiva Ohr Yisrael,2940 Avenue P,Brooklyn,NY,11229,(718) 490-6044,40.6127,-73.9437,Yeshiva Ohr Yisrael,private,school
Cong. Darkei Tshivo of Dinov,77 Wallabout St.,Brooklyn,NY,11249,(728) 576-1090,40.6997,-73.9584,Cong. Darkei Tshivo of Dinov,private,school
Yeshiva Tiferes Shmiel D'Aleksander,1010 45th St,Brooklyn,NY,11219,(718) 438-1818,40.641,-73.9961,Yeshiva Tiferes Shmiel D'Aleksander,private,school
Yeshiva Yesodei Hachaim,1326 Ocean Parkway,Brooklyn,NY,11230,(718) 336-5647,40.6162,-73.9696,Yeshiva Yesodei Hachaim,private,school
Yeshivah Prep High School,1412 Avenue J,Brooklyn,NY,11230,(347) 462-1807,40.6249,-73.9618,Yeshivah Prep High School,private,school
Academy at Trails Carolina,555 Sky Valley Camp Rd,Hendersonville,NC,28739,(828) 808-0573,35.2041,-82.5628,Academy at Trails Carolina,private,school
Charlotte Leadership Academy,1326 Prince Hall Ave,Charlotte,NC,28206,(704) 712-1195,35.2499,-80.8381,Charlotte Leadership Academy,private,school
Coastline Christian Academy,2734 Commerce Road,Jacksonville,NC,28546,(910) 467-4758,34.7818,-77.3826,Coastline Christian Academy,private,school
Community Christian Academy,616 Athenia Pl,Bessemer City,NC,28016,(704) 629-2391,35.2787,-81.2712,Community Christian Academy,private,school
Countryside Montessori School,9026 Mallard Creek Rd,Charlotte,NC,28262,(704) 503-6000,35.3269,-80.7724,Countryside Montessori School,private,school
Covenant Preparatory School,1305 Hulsey Rd,Carthage,NC,28327,(201) 417-0481,35.321,-79.3545,Covenant Preparatory School,private,school
Galilee Christian Academy,101 E. Park Ave.,Lexington,NC,27292,(336) 300-7207,35.8437,-80.209,Galilee Christian Academy,private,school
Holden Beach Christian Academy,2428 Seashore Rd SW,Supply,NC,28462,(910) 842-7822,33.9237,-78.3142,Holden Beach Christian Academy,private,school
Iron Academy,9927 Falls of Neuse Rd,Raleigh,NC,27614,(919) 971-1216,35.9114,-78.6024,Iron Academy,private,school
King Family Ministries School,1095 Damascus Rd,Danbury,NC,27016,(336) 593-8635,36.4398,-80.1935,King Family Ministries School,private,school
Learn with the Best,559 Jones Franklin Rd. Suite 164 A&b,Raleigh,NC,27606,(919) 303-1255,35.7731,-78.7219,Learn with the Best,private,school
Liberty Christian Academy,215 Kinston Highway,Richland,NC,28574,(910) 430-0741,34.9065,-77.5632,Liberty Christian Academy,private,school
New Independence Academy,2103 Oberry Center Road,Goldsboro,NC,27530,(919) 288-2429,35.412,-78.0396,New Independence Academy,private,school
New Life Christian Academy,113 Trevathan St.,Rocky Mount,NC,27803,(252) 443-6560,35.9536,-77.7991,New Life Christian Academy,private,school
Oasis Day School,3114 Randall Pkwy Suite 4,Wilmington,NC,28403,(910) 769-4586,34.229,-77.9033,Oasis Day School,private,school
Salt and Light Academy,5054 Hwy 24,Newport,NC,99999,(910) 367-2497,34.7028,-77.0241,Salt and Light Academy,private,school
Thales Academy,1201 Granite Falls Blvd,Rolesville,NC,27571,(919) 435-2715,35.9181,-78.4713,Thales Academy,private,school
Timbersong Academy,531 Upper Flat Creek Rd,Weaverville,NC,28787,(800) 264-8709,35.7478,-82.5079,Timbersong Academy,private,school
Triangle Collaborative School,"4000 Bearcat Way, Suite 104",Morrisville,NC,27560,(919) 234-0931,35.8279,-78.8211,Triangle Collaborative School,private,school
Dakota Memorial School- Bismarck,1227 N 35th St,Bismarck,ND,58501,(701) 221-5310,46.8178,-100.738,Dakota Memorial School- Bismarck,private,school
Loccse Academy,1025 N 2nd St,Bismarck,ND,58501,(701) 223-4114,46.815,-100.788,Loccse Academy,private,school
Calvary Academy- the,11970 Kenn Rd,Cincinnati,OH,45240,(513) 674-9600,39.2986,-84.5011,Calvary Academy- the,private,school
Christ'S Church Christian Academy,1440 Ridge Rd NE,Lancaster,OH,43130,(740) 687-0254,39.7397,-82.5704,Christ'S Church Christian Academy,private,school
Christian Life Academy,8877 Avon Belden Rd,North Ridgeville,OH,44039,(440) 353-0758,41.3641,-82.0184,Christian Life Academy,private,school
Community Christian Academy,303 W 4th St,Genoa,OH,43430,(419) 855-4187,41.5148,-83.3622,Community Christian Academy,private,school
Cristo Rey Columbus High School,400 E Town St,Columbus,OH,43215,(614) 223-9261,39.9605,-82.989,Cristo Rey Columbus High School,private,school
Faith Christian Academy,511 W Main St,Wilmot,OH,44689,(330) 359-6215,40.6575,-81.6347,Faith Christian Academy,private,school
Gospel Baptist School,6235 Clingan Rd,Poland,OH,44514,(330) 757-0736,41.0275,-80.5908,Gospel Baptist School,private,school
Harvest Temple Christian Academy,1022 S Main St,Clyde,OH,43410,(419) 547-8251,41.2947,-82.9749,Harvest Temple Christian Academy,private,school
Heritage Christian School,29541 E. Belpre Pike Rd.,Coolville,OH,45723,(740) 667-3149,39.2318,-81.7347,Heritage Christian School,private,school
